region,road,address,longitude,latitude,memo
士林區,延平北路,七段3號前(公車亭旁),121.4975,25.09416667,嚴禁投入家用垃圾，違者重罰新台幣6000元
士林區,延平北路,九段尾島頭公園路燈107號樓梯口旁,121.4666667,25.11,嚴禁投入家用垃圾，違者重罰新台幣6000元
士林區,延平北路,六段308號右側邊近社中街尾,121.5019444,25.09027778,嚴禁投入家用垃圾，違者重罰新台幣6000元
士林區,延平北路,九段尾島頭公園路燈109號樓梯口旁,121.4663889,25.10888889,嚴禁投入家用垃圾，違者重罰新台幣6000元
士林區,延平北路,六段308號(社子國小)側門邊,121.5033333,25.08972222,嚴禁投入家用垃圾，違者重罰新台幣6000元
士林區,延平北路,六段308號(社子國小右側邊),121.5025,25.09,嚴禁投入家用垃圾，違者重罰新台幣6000元
士林區,延平北路,六段308號(社子國小左側邊),121.5030556,25.08972222,嚴禁投入家用垃圾，違者重罰新台幣6000元
士林區,延平北路,六段308號(社子國小大門對面),121.5027778,25.08972222,嚴禁投入家用垃圾，違者重罰新台幣6000元
士林區,延平北路,六段308號(社子國小大門對面公車亭旁),121.5033333,25.08944444,嚴禁投入家用垃圾，違者重罰新台幣6000元
士林區,延平北路,六段458號(公車亭旁),121.4991667,25.09277778,嚴禁投入家用垃圾，違者重罰新台幣6000元
士林區,延平北路,七段250號福安國中(左側近臨江園),121.4886111,25.10222222,嚴禁投入家用垃圾，違者重罰新台幣6000元
士林區,延平北路,七段250號福安國中(左側),121.4880556,25.10277778,嚴禁投入家用垃圾，違者重罰新台幣6000元
士林區,延平北路,七段250號福安國中(右側),121.4877778,25.10305556,嚴禁投入家用垃圾，違者重罰新台幣6000元
士林區,延平北路,七段250號福安國中(右側近八段2巷口),121.4872222,25.10333333,嚴禁投入家用垃圾，違者重罰新台幣6000元
士林區,延平北路,八段262巷口對面(公車亭內),121.4786111,25.10583333,嚴禁投入家用垃圾，違者重罰新台幣6000元
士林區,延平北路,八段262巷口對面(公車亭內),121.4730556,25.10611111,嚴禁投入家用垃圾，違者重罰新台幣6000元
士林區,延平北路,六段308號(社子國小大門左側對面),121.5030556,25.08944444,嚴禁投入家用垃圾，違者重罰新台幣6000元
士林區,重慶北路,四段125號加油站,121.5119444,25.08277778,嚴禁投入家用垃圾，違者重罰新台幣6000元
士林區,重慶北路,四段141號加油站,121.5122222,25.08305556,嚴禁投入家用垃圾，違者重罰新台幣6000元
士林區,重慶北路,四段97號,121.5127778,25.08194444,嚴禁投入家用垃圾，違者重罰新台幣6000元
士林區,重慶北路,四段60號,121.5127778,25.08166667,嚴禁投入家用垃圾，違者重罰新台幣6000元
士林區,重慶北路,四段54號,121.5133333,25.08138889,嚴禁投入家用垃圾，違者重罰新台幣6000元
士林區,重慶北路,四段202號加油站,121.5116667,25.085,嚴禁投入家用垃圾，違者重罰新台幣6000元
士林區,重慶北路,四段202號加油站,121.5116667,25.085,嚴禁投入家用垃圾，違者重罰新台幣6000元
士林區,中正路,580號,121.5102778,25.08722222,嚴禁投入家用垃圾，違者重罰新台幣6000元
士林區,延平北路,5段271號,121.5097222,25.08527778,嚴禁投入家用垃圾，違者重罰新台幣6000元
士林區,中山北路,六段415號(蘭興2號公園),121.5266667,25.11305556,嚴禁投入家用垃圾，違者重罰新台幣6000元
士林區,中山北路,六段392號(士東國小),121.5266667,25.11333333,嚴禁投入家用垃圾，違者重罰新台幣6000元
士林區,中山北路,七段18號(台銀),121.5305556,25.11916667,嚴禁投入家用垃圾，違者重罰新台幣6000元
士林區,中山北路,七段34號,121.5311111,25.12,嚴禁投入家用垃圾，違者重罰新台幣6000元
士林區,中山北路,七段60號,121.5311111,25.12083333,嚴禁投入家用垃圾，違者重罰新台幣6000元
士林區,中山北路,七段132號(郵局),121.5319444,25.12277778,嚴禁投入家用垃圾，違者重罰新台幣6000元
士林區,中山北路,七段186號,121.5330556,25.12472222,嚴禁投入家用垃圾，違者重罰新台幣6000元
士林區,中山北路,七段230之1號 對面,121.5336111,25.1275,嚴禁投入家用垃圾，違者重罰新台幣6000元
士林區,中山北路,七段171號,121.5327778,25.12416667,嚴禁投入家用垃圾，違者重罰新台幣6000元
士林區,中山北路,七段141巷43號 (下方公園旁),121.53,25.12444444,嚴禁投入家用垃圾，違者重罰新台幣6000元
士林區,中山北路,七段141巷43號 (體惠幼稚園旁),121.5302778,25.125,嚴禁投入家用垃圾，違者重罰新台幣6000元
士林區,中山北路,七段123號前,121.5319444,25.12277778,嚴禁投入家用垃圾，違者重罰新台幣6000元
士林區,中山北路,七段71號 (富邦建設),121.5311111,25.12111111,嚴禁投入家用垃圾，違者重罰新台幣6000元
士林區,中山北路,七段45號,121.5311111,25.12,嚴禁投入家用垃圾，違者重罰新台幣6000元
士林區,天母西路,3號前,121.5297222,25.11861111,嚴禁投入家用垃圾，違者重罰新台幣6000元
士林區,天母西路,73號,121.5252778,25.11833333,嚴禁投入家用垃圾，違者重罰新台幣6000元
士林區,天母西路,46之3號,121.5255556,25.11861111,嚴禁投入家用垃圾，違者重罰新台幣6000元
士林區,天母北路,61號,121.5266667,25.12166667,嚴禁投入家用垃圾，違者重罰新台幣6000元
士林區,天母北路,68之1號,121.5266667,25.12277778,嚴禁投入家用垃圾，違者重罰新台幣6000元
士林區,天母東路,6之2號(三玉宮),121.5311111,25.11833333,嚴禁投入家用垃圾，違者重罰新台幣6000元
士林區,天母東路,46號,121.5333333,25.11833333,嚴禁投入家用垃圾，違者重罰新台幣6000元
士林區,天母東路,68號 (新光三越) (一),121.5336111,25.11805556,嚴禁投入家用垃圾，違者重罰新台幣6000元
士林區,天母東路,68號 (新光三越) (二),121.5341667,25.11805556,嚴禁投入家用垃圾，違者重罰新台幣6000元
士林區,天母東路,111號,121.5369444,25.11833333,嚴禁投入家用垃圾，違者重罰新台幣6000元
士林區,天母東路,59號邊(近57-1號旁),121.5336111,25.11777778,嚴禁投入家用垃圾，違者重罰新台幣6000元
士林區,天母東路,1之5號,121.5311111,25.11833333,嚴禁投入家用垃圾，違者重罰新台幣6000元
士林區,忠誠路,二段206號(新光三越)(三),121.5344444,25.11805556,嚴禁投入家用垃圾，違者重罰新台幣6000元
士林區,忠誠路,二段202號(新光三越)(四),121.5341667,25.15055556,嚴禁投入家用垃圾，違者重罰新台幣6000元
士林區,忠誠路,二段180號(誠品),121.5336111,25.11611111,嚴禁投入家用垃圾，違者重罰新台幣6000元
士林區,忠誠路,二段128-1號,121.5322222,25.11388889,嚴禁投入家用垃圾，違者重罰新台幣6000元
士林區,忠誠路,二段96號(統一證卷),121.5311111,25.11305556,嚴禁投入家用垃圾，違者重罰新台幣6000元
士林區,忠誠路,二段78號,121.5311111,25.11222222,嚴禁投入家用垃圾，違者重罰新台幣6000元
士林區,忠誠路,二段56號,121.5305556,25.11111111,嚴禁投入家用垃圾，違者重罰新台幣6000元
士林區,忠誠路,二段46之1號,121.5305556,25.11027778,嚴禁投入家用垃圾，違者重罰新台幣6000元
士林區,忠誠路,二段(蘭雅公園前),121.5305556,25.10972222,嚴禁投入家用垃圾，違者重罰新台幣6000元
士林區,忠誠路,二段6號,121.5302778,25.10861111,嚴禁投入家用垃圾，違者重罰新台幣6000元
士林區,忠誠路,二段27號,121.5305556,25.10972222,嚴禁投入家用垃圾，違者重罰新台幣6000元
士林區,忠誠路,二段51號(蘭雅國中),121.5305556,25.11027778,嚴禁投入家用垃圾，違者重罰新台幣6000元
士林區,忠誠路,二段77號(棒球場)(一) 118巷口對面,121.5316667,25.11361111,嚴禁投入家用垃圾，違者重罰新台幣6000元
士林區,忠誠路,二段77號(棒球場)(二) 128號對面,121.5322222,25.11388889,嚴禁投入家用垃圾，違者重罰新台幣6000元
士林區,忠誠路,(運動公園)(一)二段162號對面,121.5330556,25.11527778,嚴禁投入家用垃圾，違者重罰新台幣6000元
士林區,忠誠路,(運動公園)(二)二段178巷口對面,121.5338889,25.11583333,嚴禁投入家用垃圾，違者重罰新台幣6000元
士林區,忠誠路,二段207巷1號(啟明學校)旁(二),121.5347222,25.11722222,嚴禁投入家用垃圾，違者重罰新台幣6000元
士林區,東山路,114號,121.5394444,25.11305556,嚴禁投入家用垃圾，違者重罰新台幣6000元
士林區,東山路,底 (忠孝新村站牌 旁),121.5397222,25.11111111,嚴禁投入家用垃圾，違者重罰新台幣6000元
士林區,東山路,與士東路352巷口 職訓(二)站牌,121.5394444,25.11361111,嚴禁投入家用垃圾，違者重罰新台幣6000元
士林區,東山路,27號(光華巴士總站),121.5391667,25.11583333,嚴禁投入家用垃圾，違者重罰新台幣6000元
士林區,士東路,264號對面,121.5363889,25.11333333,嚴禁投入家用垃圾，違者重罰新台幣6000元
士林區,士東路,238號對面,121.535,25.11305556,嚴禁投入家用垃圾，違者重罰新台幣6000元
士林區,士東路,216號對面棒球場(一),121.5341667,25.11277778,嚴禁投入家用垃圾，違者重罰新台幣6000元
士林區,士東路,180號(台電),121.5322222,25.1125,嚴禁投入家用垃圾，違者重罰新台幣6000元
士林區,士東路,190號(法院正門200巷)(一),121.5336111,25.11194444,嚴禁投入家用垃圾，違者重罰新台幣6000元
士林區,士東路,190號(法院)(一),121.5327778,25.11138889,嚴禁投入家用垃圾，違者重罰新台幣6000元
士林區,中山北路,六段431號,121.5272222,25.11416667,嚴禁投入家用垃圾，違者重罰新台幣6000元
士林區,中山北路,六段420號,121.5269444,25.11388889,嚴禁投入家用垃圾，違者重罰新台幣6000元
士林區,中山北路,六段750號,121.5280556,25.11583333,嚴禁投入家用垃圾，違者重罰新台幣6000元
士林區,中山北路,六段800號(美國學校)(二),121.5291667,25.11694444,嚴禁投入家用垃圾，違者重罰新台幣6000元
士林區,中山北路,六段800號(美國學校)(四),121.5294444,25.1175,嚴禁投入家用垃圾，違者重罰新台幣6000元
士林區,中山北路,七段29號,121.5305556,25.11944444,嚴禁投入家用垃圾，違者重罰新台幣6000元
士林區,中山北路,六段785號(日本學校)(一),121.5297222,25.11833333,嚴禁投入家用垃圾，違者重罰新台幣6000元
士林區,中山北路,六段785號(日本學校)(三),121.5291667,25.11722222,嚴禁投入家用垃圾，違者重罰新台幣6000元
士林區,中山北路,六段765號,121.5280556,25.11583333,嚴禁投入家用垃圾，違者重罰新台幣6000元
士林區,天母西路,61號,121.5261111,25.11861111,嚴禁投入家用垃圾，違者重罰新台幣6000元
士林區,士東路,180號台電對面,121.5325,25.11277778,嚴禁投入家用垃圾，違者重罰新台幣6000元
士林區,中山北路,劍潭捷運站1號出口對面,121.5302778,25.08666667,嚴禁投入家用垃圾，違者重罰新台幣6000元
士林區,中山北路,劍潭捷運站1號出口對面,121.5302778,25.08666667,嚴禁投入家用垃圾，違者重罰新台幣6000元
士林區,中山北路,劍潭捷運站1號出口對面,121.5302778,25.08638889,嚴禁投入家用垃圾，違者重罰新台幣6000元
士林區,中山北路,劍潭捷運站1號出口對面,121.5302778,25.08611111,嚴禁投入家用垃圾，違者重罰新台幣6000元
士林區,中山北路,劍潭捷運站前,121.5297222,25.08611111,嚴禁投入家用垃圾，違者重罰新台幣6000元
士林區,中山北路,劍潭捷運站前,121.5297222,25.08611111,嚴禁投入家用垃圾，違者重罰新台幣6000元
士林區,中山北路,劍潭捷運站前,121.5305556,25.08694444,嚴禁投入家用垃圾，違者重罰新台幣6000元
士林區,中山北路,劍潭捷運站前,121.5305556,25.08694444,嚴禁投入家用垃圾，違者重罰新台幣6000元
士林區,福德路,士林捷運站2號出口對面,121.5336111,25.08805556,嚴禁投入家用垃圾，違者重罰新台幣6000元
士林區,基河路,3號對面,121.5297222,25.08861111,嚴禁投入家用垃圾，違者重罰新台幣6000元
士林區,基河路,9號對面,121.5297222,25.08861111,嚴禁投入家用垃圾，違者重罰新台幣6000元
士林區,基河路,15號好樂迪對面,121.5288889,25.09,嚴禁投入家用垃圾，違者重罰新台幣6000元
士林區,基河路,15號都會叢林對面,121.5286111,25.09055556,嚴禁投入家用垃圾，違者重罰新台幣6000元
士林區,基河路,99號對面,121.5288889,25.09083333,嚴禁投入家用垃圾，違者重罰新台幣6000元
士林區,基河路,104號,121.5280556,25.09138889,嚴禁投入家用垃圾，違者重罰新台幣6000元
士林區,基河路,114號,121.5280556,25.09138889,嚴禁投入家用垃圾，違者重罰新台幣6000元
士林區,文林路,235號對面,121.5336111,25.09555556,嚴禁投入家用垃圾，違者重罰新台幣6000元
士林區,文林路,235號對面,121.5336111,25.09555556,嚴禁投入家用垃圾，違者重罰新台幣6000元
士林區,文林路,249號,121.5280556,25.10194444,嚴禁投入家用垃圾，違者重罰新台幣6000元
士林區,中正路,288號,121.5263889,25.09527778,嚴禁投入家用垃圾，違者重罰新台幣6000元
士林區,文林路,472號,121.5266667,25.095,嚴禁投入家用垃圾，違者重罰新台幣6000元
士林區,文林路,477號,121.5297222,25.10055556,嚴禁投入家用垃圾，違者重罰新台幣6000元
士林區,文林路,398號對面,121.5302778,25.10083333,嚴禁投入家用垃圾，違者重罰新台幣6000元
士林區,中正路,266號,121.5286111,25.1025,嚴禁投入家用垃圾，違者重罰新台幣6000元
士林區,中正路,316號,121.5291667,25.1,嚴禁投入家用垃圾，違者重罰新台幣6000元
士林區,中正路,408號,121.5277778,25.10194444,嚴禁投入家用垃圾，違者重罰新台幣6000元
士林區,中正路,383號,121.5227778,25.10055556,嚴禁投入家用垃圾，違者重罰新台幣6000元
士林區,中正路,373號,121.5230556,25.10083333,嚴禁投入家用垃圾，違者重罰新台幣6000元
士林區,中正路,385號,121.5247222,25.10111111,嚴禁投入家用垃圾，違者重罰新台幣6000元
士林區,中正路,375號,121.5247222,25.10111111,嚴禁投入家用垃圾，違者重罰新台幣6000元
士林區,中正路,345號,121.525,25.10138889,嚴禁投入家用垃圾，違者重罰新台幣6000元
士林區,中正路,303號,121.5252778,25.10166667,嚴禁投入家用垃圾，違者重罰新台幣6000元
士林區,中正路,289號,121.5286111,25.10194444,嚴禁投入家用垃圾，違者重罰新台幣6000元
士林區,基河路,250號,121.5277778,25.09111111,嚴禁投入家用垃圾，違者重罰新台幣6000元
士林區,中正路,253號,121.5297222,25.1025,嚴禁投入家用垃圾，違者重罰新台幣6000元
士林區,基河路,258號,121.5230556,25.09888889,嚴禁投入家用垃圾，違者重罰新台幣6000元
士林區,基河路,258號,121.5230556,25.09722222,嚴禁投入家用垃圾，違者重罰新台幣6000元
士林區,基河路,250號,121.5233333,25.09833333,嚴禁投入家用垃圾，違者重罰新台幣6000元
士林區,文林路,412號,121.5277778,25.09083333,嚴禁投入家用垃圾，違者重罰新台幣6000元
士林區,基河路,258號,121.5230556,25.09888889,嚴禁投入家用垃圾，違者重罰新台幣6000元
士林區,基河路,258號對面,121.5230556,25.09888889,嚴禁投入家用垃圾，違者重罰新台幣6000元
士林區,小北街,7號對面,121.5327778,25.09472222,嚴禁投入家用垃圾，違者重罰新台幣6000元
士林區,中山北路,五段607號,121.5277778,25.09583333,嚴禁投入家用垃圾，違者重罰新台幣6000元
士林區,中正路,188號,121.5272222,25.09555556,嚴禁投入家用垃圾，違者重罰新台幣6000元
士林區,中正路,243號,121.5258333,25.095,嚴禁投入家用垃圾，違者重罰新台幣6000元
士林區,中正路,243號,121.5258333,25.095,嚴禁投入家用垃圾，違者重罰新台幣6000元
士林區,中正路,243號,121.5258333,25.095,嚴禁投入家用垃圾，違者重罰新台幣6000元
士林區,中山北路,五段511號,121.5283333,25.09361111,嚴禁投入家用垃圾，違者重罰新台幣6000元
士林區,中山北路,五段505號,121.5277778,25.09361111,嚴禁投入家用垃圾，違者重罰新台幣6000元
士林區,中山北路,五段495號,121.5277778,25.09277778,嚴禁投入家用垃圾，違者重罰新台幣6000元
士林區,中山北路,五段459號,121.5275,25.09166667,嚴禁投入家用垃圾，違者重罰新台幣6000元
士林區,中山北路,五段453號,121.5275,25.09138889,嚴禁投入家用垃圾，違者重罰新台幣6000元
士林區,中山北路,五段433號,121.5272222,25.08333333,嚴禁投入家用垃圾，違者重罰新台幣6000元
士林區,中山北路,五段300號對面,121.5272222,25.08888889,嚴禁投入家用垃圾，違者重罰新台幣6000元
士林區,中山北路,五段282巷對面右側,121.5269444,25.08805556,嚴禁投入家用垃圾，違者重罰新台幣6000元
士林區,中山北路,五段250號對面,121.5263889,25.08694444,嚴禁投入家用垃圾，違者重罰新台幣6000元
士林區,中山北路,五段250號對面,121.5261111,25.08666667,嚴禁投入家用垃圾，違者重罰新台幣6000元
士林區,中山北路,五段6號圓山保齡球館對面,121.5252778,25.08277778,嚴禁投入家用垃圾，違者重罰新台幣6000元
士林區,中山北路,五段6號圓山保齡球館對面,121.525,25.08194444,嚴禁投入家用垃圾，違者重罰新台幣6000元
士林區,中山北路,五段6號左側,121.5247222,25.08166667,嚴禁投入家用垃圾，違者重罰新台幣6000元
士林區,中山北路,五段6號保齡球館出口,121.5255556,25.08222222,嚴禁投入家用垃圾，違者重罰新台幣6000元
士林區,中山北路,五段42號,121.5255556,25.08333333,嚴禁投入家用垃圾，違者重罰新台幣6000元
士林區,中山北路,五段62號,121.5255556,25.08361111,嚴禁投入家用垃圾，違者重罰新台幣6000元
士林區,中山北路,五段104號,121.5258333,25.08555556,嚴禁投入家用垃圾，違者重罰新台幣6000元
士林區,中山北路,五段376號,121.5277778,25.08972222,嚴禁投入家用垃圾，違者重罰新台幣6000元
士林區,中山北路,五段380號,121.5275,25.09055556,嚴禁投入家用垃圾，違者重罰新台幣6000元
士林區,中山北路,五段380號北側,121.5277778,25.09083333,嚴禁投入家用垃圾，違者重罰新台幣6000元
士林區,中山北路,五段455號對面,121.5277778,25.09277778,嚴禁投入家用垃圾，違者重罰新台幣6000元
士林區,中山北路,五段463號對面,121.5277778,25.09138889,嚴禁投入家用垃圾，違者重罰新台幣6000元
士林區,中山北路,五段495號對面,121.5277778,25.09194444,嚴禁投入家用垃圾，違者重罰新台幣6000元
士林區,中山北路,五段505巷對面與福林路交叉口,121.5280556,25.09361111,嚴禁投入家用垃圾，違者重罰新台幣6000元
士林區,中正路,116號對面燦坤左側,121.5288889,25.09583333,嚴禁投入家用垃圾，違者重罰新台幣6000元
士林區,中正路,116號對面燦坤左側,121.5291667,25.09583333,嚴禁投入家用垃圾，違者重罰新台幣6000元
士林區,中正路,104巷對面左側,121.5297222,25.09611111,嚴禁投入家用垃圾，違者重罰新台幣6000元
士林區,中正路,福林地下停車場旁,121.5313889,25.09638889,嚴禁投入家用垃圾，違者重罰新台幣6000元
士林區,福林路,240號泰北中學站牌(右側),121.5333333,25.09722222,嚴禁投入家用垃圾，違者重罰新台幣6000元
士林區,福林路,240號泰北中學站牌(右側),121.5336111,25.09722222,嚴禁投入家用垃圾，違者重罰新台幣6000元
士林區,福林路,240號泰北中學站牌(左側),121.5341667,25.0975,嚴禁投入家用垃圾，違者重罰新台幣6000元
士林區,福林路,247號對面,121.5347222,25.09805556,嚴禁投入家用垃圾，違者重罰新台幣6000元
士林區,福林路,259號對面,121.5352778,25.09861111,嚴禁投入家用垃圾，違者重罰新台幣6000元
士林區,福林路,311號對面,121.5361111,25.09888889,嚴禁投入家用垃圾，違者重罰新台幣6000元
士林區,至善路與,福林路交叉口(雙溪公園旁),121.5366667,25.09888889,嚴禁投入家用垃圾，違者重罰新台幣6000元
士林區,至善路,一段東吳大學公車站旁,121.5419444,25.09722222,嚴禁投入家用垃圾，違者重罰新台幣6000元
士林區,至善路,一段中影(一)(全家便利商店),121.5441667,25.09694444,嚴禁投入家用垃圾，違者重罰新台幣6000元
士林區,至善路,一段中影(二),121.5444444,25.09694444,嚴禁投入家用垃圾，違者重罰新台幣6000元
士林區,至善路,一段中影(三),121.5447222,25.09722222,嚴禁投入家用垃圾，違者重罰新台幣6000元
士林區,故宮路,19號對面,121.5466667,25.0975,嚴禁投入家用垃圾，違者重罰新台幣6000元
士林區,至善路,二段114-1號,121.5469444,25.09833333,嚴禁投入家用垃圾，違者重罰新台幣6000元
士林區,至善路,二段286號,121.5522222,25.10111111,嚴禁投入家用垃圾，違者重罰新台幣6000元
士林區,至善路,二段322巷口,121.5525,25.10083333,嚴禁投入家用垃圾，違者重罰新台幣6000元
士林區,至善路,二段342巷口旁(張大千),121.5544444,25.10333333,嚴禁投入家用垃圾，違者重罰新台幣6000元
士林區,至善路,二段360號(至善國中),121.5555556,25.10388889,嚴禁投入家用垃圾，違者重罰新台幣6000元
士林區,至善路,二段雙溪別墅站牌雙號,121.5572222,25.10527778,嚴禁投入家用垃圾，違者重罰新台幣6000元
士林區,至善路,二段大經橋站牌雙號,121.5572222,25.10916667,嚴禁投入家用垃圾，違者重罰新台幣6000元
士林區,至善路,二段外雙溪橋站牌雙號,121.5583333,25.11166667,嚴禁投入家用垃圾，違者重罰新台幣6000元
士林區,中社路,二段公園與明溪街,121.5658333,25.10555556,嚴禁投入家用垃圾，違者重罰新台幣6000元
士林區,中社路,二段185巷口(一),121.5711111,25.10777778,嚴禁投入家用垃圾，違者重罰新台幣6000元
士林區,中社路,二段登山步道,121.5677778,25.10611111,嚴禁投入家用垃圾，違者重罰新台幣6000元
士林區,中社路,二段大崙尾山站牌,121.5697222,25.10666667,嚴禁投入家用垃圾，違者重罰新台幣6000元
士林區,中社路,二段雙溪站(一),121.5672222,25.10666667,嚴禁投入家用垃圾，違者重罰新台幣6000元
士林區,至善路,二段外雙溪橋站牌單號,121.5580556,25.11166667,嚴禁投入家用垃圾，違者重罰新台幣6000元
士林區,至善路,二段449號(大經橋),121.5572222,25.10916667,嚴禁投入家用垃圾，違者重罰新台幣6000元
士林區,至善路,二段415號(劍南路),121.5575,25.10694444,嚴禁投入家用垃圾，違者重罰新台幣6000元
士林區,至善路,二段外雙溪別墅站牌,121.5572222,25.10555556,嚴禁投入家用垃圾，違者重罰新台幣6000元
士林區,至善路,二段至善國中對面單號土地公廟,121.5569444,25.105,嚴禁投入家用垃圾，違者重罰新台幣6000元
士林區,至善路,二段至善國中站牌單號,121.5555556,25.10388889,嚴禁投入家用垃圾，違者重罰新台幣6000元
士林區,至善路,二段321號衛理女中旁,121.5522222,25.10138889,嚴禁投入家用垃圾，違者重罰新台幣6000元
士林區,至善路,二段272號對面,121.5511111,25.10083333,嚴禁投入家用垃圾，違者重罰新台幣6000元
士林區,至善路,二段321號故宮站牌左側,121.5494444,25.08333333,嚴禁投入家用垃圾，違者重罰新台幣6000元
士林區,至善路,二段321號故宮1,121.5494444,25.1,嚴禁投入家用垃圾，違者重罰新台幣6000元
士林區,至善路,二段321號故宮2,121.5497222,25.10027778,嚴禁投入家用垃圾，違者重罰新台幣6000元
士林區,至善路,二段321號故宮3,121.5497222,25.10055556,嚴禁投入家用垃圾，違者重罰新台幣6000元
士林區,至善路,二段321號故宮4,121.5502778,25.1,嚴禁投入家用垃圾，違者重罰新台幣6000元
士林區,至善路,二段321號故宮5,121.5505556,25.10027778,嚴禁投入家用垃圾，違者重罰新台幣6000元
士林區,至善路,二段故宮停車場對面,121.5491667,25.09944444,嚴禁投入家用垃圾，違者重罰新台幣6000元
士林區,至善路,二段143巷口,121.5475,25.09888889,嚴禁投入家用垃圾，違者重罰新台幣6000元
士林區,至善路,二段故宮路口對面左側,121.5444444,25.09805556,嚴禁投入家用垃圾，違者重罰新台幣6000元
士林區,至善路,二段9號,121.5436111,25.09722222,嚴禁投入家用垃圾，違者重罰新台幣6000元
士林區,至善路,一段天橋東側1(139號前),121.5411111,25.0975,嚴禁投入家用垃圾，違者重罰新台幣6000元
士林區,至善路,一段至善公園1,121.5375,25.09833333,嚴禁投入家用垃圾，違者重罰新台幣6000元
士林區,福林路,229號旁,121.5338889,25.09777778,嚴禁投入家用垃圾，違者重罰新台幣6000元
士林區,福林路,205號旁,121.5336111,25.0975,嚴禁投入家用垃圾，違者重罰新台幣6000元
士林區,雨農路,與中正路交叉口右側,121.5319444,25.09666667,嚴禁投入家用垃圾，違者重罰新台幣6000元
士林區,中正路,雙號士林官邸站牌,121.5313889,25.09638889,嚴禁投入家用垃圾，違者重罰新台幣6000元
士林區,中正路,雙號士林官邸站牌左側15公尺,121.5311111,25.09638889,嚴禁投入家用垃圾，違者重罰新台幣6000元
士林區,中正路,104巷福林國小站牌旁,121.5297222,25.09611111,嚴禁投入家用垃圾，違者重罰新台幣6000元
士林區,中山北路,五段685號,121.5275,25.09722222,嚴禁投入家用垃圾，違者重罰新台幣6000元
士林區,中山北路,五段647號,121.5275,25.09694444,嚴禁投入家用垃圾，違者重罰新台幣6000元
士林區,中山北路,五段465號,121.5277778,25.09277778,嚴禁投入家用垃圾，違者重罰新台幣6000元
士林區,中山北路,五段439號,121.5272222,25.09111111,嚴禁投入家用垃圾，違者重罰新台幣6000元
士林區,中山北路,五段台電北區對面站牌437號,121.5272222,25.09055556,嚴禁投入家用垃圾，違者重罰新台幣6000元
士林區,中山北路,五段消防局左斜對面433號,121.5275,25.08944444,嚴禁投入家用垃圾，違者重罰新台幣6000元
士林區,中山北路,五段單號文林路口,121.5252778,25.08583333,嚴禁投入家用垃圾，違者重罰新台幣6000元
士林區,中山北路,五段單號文林路口捷運橋下,121.5258333,25.08611111,嚴禁投入家用垃圾，違者重罰新台幣6000元
士林區,中山北路,五段單號劍潭捷運站北側,121.5252778,25.08527778,嚴禁投入家用垃圾，違者重罰新台幣6000元
士林區,中山北路,五段單號劍潭捷運站南側,121.5252778,25.08472222,嚴禁投入家用垃圾，違者重罰新台幣6000元
士林區,中山北路,五段單號劍潭路口,121.5252778,25.08444444,嚴禁投入家用垃圾，違者重罰新台幣6000元
士林區,中山北路,五段單號劍潭捷運站停車場前,121.5258333,25.08666667,嚴禁投入家用垃圾，違者重罰新台幣6000元
士林區,中山北路,五段單號保齡球館對面,121.5255556,25.08305556,嚴禁投入家用垃圾，違者重罰新台幣6000元
士林區,中山北路,五段250號銘傳大學中側,121.5263889,25.08694444,嚴禁投入家用垃圾，違者重罰新台幣6000元
士林區,中山北路,五段250號銘傳大學北側,121.5266667,25.08722222,嚴禁投入家用垃圾，違者重罰新台幣6000元
士林區,中山北路,五段雙號台電北區站牌北側,121.5277778,25.09111111,嚴禁投入家用垃圾，違者重罰新台幣6000元
士林區,中山北路,五段雙號士林官邸站牌南側,121.5283333,25.09444444,嚴禁投入家用垃圾，違者重罰新台幣6000元
士林區,中山北路,五段雙號士林官邸站牌北側,121.5283333,25.095,嚴禁投入家用垃圾，違者重罰新台幣6000元
士林區,中山北路,五段680號福林橋站牌北側,121.5272222,25.09722222,嚴禁投入家用垃圾，違者重罰新台幣6000元
士林區,中山北路,五段626號福林橋站牌南側,121.5277778,25.09694444,嚴禁投入家用垃圾，違者重罰新台幣6000元
士林區,中山北路,五段433號左側公車站牌(台電北北區營業處),121.5275,25.09444444,嚴禁投入家用垃圾，違者重罰新台幣6000元
士林區,中山北路,五段-銘傳大學公車站牌,121.5272222,25.09638889,嚴禁投入家用垃圾，違者重罰新台幣6000元
士林區,中山北路,五段-復興廣播電台對面,121.5269444,25.09611111,嚴禁投入家用垃圾，違者重罰新台幣6000元
士林區,承德路,四段177號,121.5244444,25.08611111,嚴禁投入家用垃圾，違者重罰新台幣6000元
士林區,承德路,四段177號,121.5230556,25.08638889,嚴禁投入家用垃圾，違者重罰新台幣6000元
士林區,承德路,四段177號,121.5227778,25.08666667,嚴禁投入家用垃圾，違者重罰新台幣6000元
士林區,承德路,四段239號,121.5213889,25.08861111,嚴禁投入家用垃圾，違者重罰新台幣6000元
士林區,承德路,五段80號監理站驗車(左)1,121.5161111,25.09638889,嚴禁投入家用垃圾，違者重罰新台幣6000元
士林區,承德路,五段80號監理站公車站(左),121.5138889,25.095,嚴禁投入家用垃圾，違者重罰新台幣6000元
士林區,承德路,五段80號監理站大門(左)1,121.5144444,25.09472222,嚴禁投入家用垃圾，違者重罰新台幣6000元
士林區,承德路,五段80號監理站大門(左)2,121.5141667,25.09444444,嚴禁投入家用垃圾，違者重罰新台幣6000元
士林區,中山北路,四段67號,121.5211111,25.08861111,嚴禁投入家用垃圾，違者重罰新台幣6000元
士林區,承德路,四段177號,121.5233333,25.08583333,嚴禁投入家用垃圾，違者重罰新台幣6000元
士林區,承德路,四段177號,121.5230556,25.08611111,嚴禁投入家用垃圾，違者重罰新台幣6000元
士林區,承德路,四段177號,121.5227778,25.08638889,嚴禁投入家用垃圾，違者重罰新台幣6000元
士林區,承德路,四段177號,121.5225,25.08694444,嚴禁投入家用垃圾，違者重罰新台幣6000元
士林區,承德路,四段177號,121.5225,25.08722222,嚴禁投入家用垃圾，違者重罰新台幣6000元
士林區,承德路,四段220號,121.5216667,25.08861111,嚴禁投入家用垃圾，違者重罰新台幣6000元
士林區,承德路,四段234號,121.5166667,25.09111111,嚴禁投入家用垃圾，違者重罰新台幣6000元
士林區,中正路,439號士林行政中心,121.5191667,25.0925,嚴禁投入家用垃圾，違者重罰新台幣6000元
士林區,中正路,510號陽明高中站牌,121.5177778,25.09166667,嚴禁投入家用垃圾，違者重罰新台幣6000元
士林區,中正路,510號大橋口旁,121.5175,25.09194444,嚴禁投入家用垃圾，違者重罰新台幣6000元
士林區,中正路,510號陽明高中大門左側,121.5166667,25.09138889,嚴禁投入家用垃圾，違者重罰新台幣6000元
士林區,中正路,519號陽明高中站牌(右),121.5169444,25.09111111,嚴禁投入家用垃圾，違者重罰新台幣6000元
士林區,中正路,519號陽明高中站牌(右),121.5166667,25.09138889,嚴禁投入家用垃圾，違者重罰新台幣6000元
士林區,士商路,189號科教館基河路396巷交叉口,121.5141667,25.09611111,嚴禁投入家用垃圾，違者重罰新台幣6000元
士林區,士商路,189號科教館基河路396巷交叉口(左側),121.5163889,25.09638889,嚴禁投入家用垃圾，違者重罰新台幣6000元
士林區,士商路,189號科教館基河路396巷交叉口(右側),121.5161111,25.09527778,嚴禁投入家用垃圾，違者重罰新台幣6000元
士林區,士商路,189號科教館基河路396巷交叉口(停車場入口),121.5141667,25.09611111,嚴禁投入家用垃圾，違者重罰新台幣6000元
士林區,承德路,五段80號監理站驗車(左),121.5138889,25.09555556,嚴禁投入家用垃圾，違者重罰新台幣6000元
士林區,承德路,五段80號監理站公車站(右),121.5141667,25.09611111,嚴禁投入家用垃圾，違者重罰新台幣6000元
士林區,承德路,五段80號監理站公車站(右),121.5141667,25.09416667,嚴禁投入家用垃圾，違者重罰新台幣6000元
士林區,承德路,五段80號機車路考場,121.5144444,25.09416667,嚴禁投入家用垃圾，違者重罰新台幣6000元
士林區,福國路,36號,121.5241667,25.10222222,嚴禁投入家用垃圾，違者重罰新台幣6000元
士林區,福國路,95之15號,121.5222222,25.10166667,嚴禁投入家用垃圾，違者重罰新台幣6000元
士林區,福國路,21-1號前,121.5241667,25.10194444,嚴禁投入家用垃圾，違者重罰新台幣6000元
士林區,福國路,與中山北六段(僑園斜對面),121.5255556,25.1025,嚴禁投入家用垃圾，違者重罰新台幣6000元
士林區,文林路,665號,121.5225,25.10083333,嚴禁投入家用垃圾，違者重罰新台幣6000元
士林區,文林路,706號,121.5211111,25.10222222,嚴禁投入家用垃圾，違者重罰新台幣6000元
士林區,文林路,712號對面,121.5208333,25.10222222,嚴禁投入家用垃圾，違者重罰新台幣6000元
士林區,文林路,720號對面,121.5205556,25.10222222,嚴禁投入家用垃圾，違者重罰新台幣6000元
士林區,忠誠路,一段忠誠公園車站牌前,121.5258333,25.10388889,嚴禁投入家用垃圾，違者重罰新台幣6000元
士林區,忠誠路,一段忠誠公園車站牌前,121.5261111,25.10416667,嚴禁投入家用垃圾，違者重罰新台幣6000元
士林區,忠誠路,一段104號前,121.5283333,25.10555556,嚴禁投入家用垃圾，違者重罰新台幣6000元
士林區,仰德大道,一段12巷口(芝山派出所旁),121.5377778,25.10111111,嚴禁投入家用垃圾，違者重罰新台幣6000元
士林區,仰德大道,一段91巷口芝蘭新村站牌,121.5372222,25.1075,嚴禁投入家用垃圾，違者重罰新台幣6000元
士林區,中山北路,六段六段福林橋前,121.5261111,25.10194444,嚴禁投入家用垃圾，違者重罰新台幣6000元
士林區,中山北路,六段31號,121.5247222,25.10361111,嚴禁投入家用垃圾，違者重罰新台幣6000元
士林區,中山北路,六段六段19號對面(忠誠公園旁),121.5252778,25.10333333,嚴禁投入家用垃圾，違者重罰新台幣6000元
士林區,中山北路,六段76號,121.5247222,25.10444444,嚴禁投入家用垃圾，違者重罰新台幣6000元
士林區,中山北路,六段212號,121.5252778,25.10833333,嚴禁投入家用垃圾，違者重罰新台幣6000元
士林區,中山北路,六段336號,121.5258333,25.11166667,嚴禁投入家用垃圾，違者重罰新台幣6000元
士林區,中山北路,六段336號對面,121.5258333,25.11166667,嚴禁投入家用垃圾，違者重罰新台幣6000元
士林區,德行西路,96號,121.5211111,25.10416667,嚴禁投入家用垃圾，違者重罰新台幣6000元
士林區,德行東路,147號,121.5297222,25.10805556,嚴禁投入家用垃圾，違者重罰新台幣6000元
士林區,德行東路,156號,121.5297222,25.10833333,嚴禁投入家用垃圾，違者重罰新台幣6000元
士林區,德行東路,200號,121.5316667,25.10888889,嚴禁投入家用垃圾，違者重罰新台幣6000元
士林區,德行東路,328號對面(芝山國小站牌)前,121.5372222,25.11027778,嚴禁投入家用垃圾，違者重罰新台幣6000元
士林區,雨聲街,雨農國小車站(後門),121.5302778,25.10472222,嚴禁投入家用垃圾，違者重罰新台幣6000元
士林區,雨聲街,36號(85度C咖啡廳),121.5291667,25.10194444,嚴禁投入家用垃圾，違者重罰新台幣6000元
士林區,仰德大道,(華興中學),121.5377778,25.10416667,嚴禁投入家用垃圾，違者重罰新台幣6000元
士林區,仰德大道,二段嶺頭站牌,121.5402778,25.10222222,嚴禁投入家用垃圾，違者重罰新台幣6000元
士林區,仰德大道,二段134巷對面公車站排旁(林語堂故居),121.5472222,25.10972222,嚴禁投入家用垃圾，違者重罰新台幣6000元
士林區,仰德大道,三段5巷旁(福音公車站牌),121.5502778,25.11416667,嚴禁投入家用垃圾，違者重罰新台幣6000元
士林區,仰德大道,四段75號公車站牌旁(格致國中),121.5469444,25.13083333,嚴禁投入家用垃圾，違者重罰新台幣6000元
士林區,愛富一街,旁公車站牌旁(一)文化大學公車站,121.5463889,25.13805556,嚴禁投入家用垃圾，違者重罰新台幣6000元
士林區,愛富一街,旁公車站牌旁(二)文化大學公車站,121.5463889,25.13805556,嚴禁投入家用垃圾，違者重罰新台幣6000元
士林區,和平路,10號旁(一)文化大學公車站,121.5466667,25.13861111,嚴禁投入家用垃圾，違者重罰新台幣6000元
士林區,和平路,10號旁(二)文化大學公車站,121.5466667,25.13861111,嚴禁投入家用垃圾，違者重罰新台幣6000元
士林區,大亨路,(格致路167巷斜對面公車站牌),121.5494444,25.14083333,嚴禁投入家用垃圾，違者重罰新台幣6000元
士林區,大亨路,(格致路166巷斜對面公車站牌旁),121.5494444,25.14083333,嚴禁投入家用垃圾，違者重罰新台幣6000元
士林區,大亨路,公車站牌旁(中國大飯店),121.5491667,25.1425,嚴禁投入家用垃圾，違者重罰新台幣6000元
士林區,平菁街,86號流動廁所旁(一),121.5763889,25.13138889,嚴禁投入家用垃圾，違者重罰新台幣6000元
士林區,平菁街,86號流動廁所旁(二),121.5763889,25.13138889,嚴禁投入家用垃圾，違者重罰新台幣6000元
士林區,平菁街,106巷(合誠宮對面)(一),121.5725,25.13027778,嚴禁投入家用垃圾，違者重罰新台幣6000元
士林區,平菁街,106巷(合誠宮對面)(二),121.5725,25.13027778,嚴禁投入家用垃圾，違者重罰新台幣6000元
士林區,平菁街,43巷,121.5733333,25.13055556,嚴禁投入家用垃圾，違者重罰新台幣6000元
士林區,凱旋路,(觀景台),121.5394444,25.13416667,嚴禁投入家用垃圾，違者重罰新台幣6000元
士林區,菁山路,125巷,121.565,25.14472222,嚴禁投入家用垃圾，違者重罰新台幣6000元
大同區,民權西路,95號對面公車站內,121.5186111,25.06305556,嚴禁投入家用垃圾，違者重罰新台幣6000元
大同區,民權西路,95號對面公車站內,121.5186111,25.06305556,嚴禁投入家用垃圾，違者重罰新台幣6000元
大同區,承德路,3段5號,121.5183333,25.06333333,嚴禁投入家用垃圾，違者重罰新台幣6000元
大同區,承德路,3段15號,121.5183333,25.06333333,嚴禁投入家用垃圾，違者重罰新台幣6000元
大同區,承德路,3段53號,121.5186111,25.06555556,嚴禁投入家用垃圾，違者重罰新台幣6000元
大同區,承德路,3段95號,121.5183333,25.06583333,嚴禁投入家用垃圾，違者重罰新台幣6000元
大同區,承德路,3段131號,121.5186111,25.0675,嚴禁投入家用垃圾，違者重罰新台幣6000元
大同區,承德路,3段175號,121.5186111,25.06916667,嚴禁投入家用垃圾，違者重罰新台幣6000元
大同區,承德路,3段223號,121.5183333,25.07,嚴禁投入家用垃圾，違者重罰新台幣6000元
大同區,酒泉街,圓山捷運酒泉街1號出口,121.5197222,25.07083333,嚴禁投入家用垃圾，違者重罰新台幣6000元
大同區,酒泉街,圓山捷運酒泉街1號出口,121.52,25.07111111,嚴禁投入家用垃圾，違者重罰新台幣6000元
大同區,酒泉街,圓山捷運酒泉街1號出口,121.52,25.07111111,嚴禁投入家用垃圾，違者重罰新台幣6000元
大同區,庫倫街,圓山捷運庫倫街2號出口,121.5202778,25.07194444,嚴禁投入家用垃圾，違者重罰新台幣6000元
大同區,承德路,3段（中華電信）,121.5186111,25.07166667,嚴禁投入家用垃圾，違者重罰新台幣6000元
大同區,承德路,3段277號(合作金庫),121.5191667,25.07277778,嚴禁投入家用垃圾，違者重罰新台幣6000元
大同區,承德路,3段285號(明倫國小),121.5191667,25.07333333,嚴禁投入家用垃圾，違者重罰新台幣6000元
大同區,承德路,3段287號(職訓中心),121.5197222,25.07444444,嚴禁投入家用垃圾，違者重罰新台幣6000元
大同區,承德路,3段敦煌路口(勞檢處),121.52,25.075,嚴禁投入家用垃圾，違者重罰新台幣6000元
大同區,承德路,3段336號,121.5202778,25.07611111,嚴禁投入家用垃圾，違者重罰新台幣6000元
大同區,敦煌路,19號（明倫高中）,121.5197222,25.07555556,嚴禁投入家用垃圾，違者重罰新台幣6000元
大同區,敦煌路,19號（重慶國中）,121.5180556,25.07583333,嚴禁投入家用垃圾，違者重罰新台幣6000元
大同區,敦煌路,平光寺門口,121.5177778,25.07555556,嚴禁投入家用垃圾，違者重罰新台幣6000元
大同區,承德路,3段320號,121.5197222,25.075,嚴禁投入家用垃圾，違者重罰新台幣6000元
大同區,承德路,3段264號,121.5191667,25.07361111,嚴禁投入家用垃圾，違者重罰新台幣6000元
大同區,承德路,3段240號,121.5191667,25.07277778,嚴禁投入家用垃圾，違者重罰新台幣6000元
大同區,庫倫街,25號,121.5177778,25.07222222,嚴禁投入家用垃圾，違者重罰新台幣6000元
大同區,酒泉街,保安宮(公車站牌),121.5155556,25.07222222,嚴禁投入家用垃圾，違者重罰新台幣6000元
大同區,承德路,3段212號,121.5188889,25.07111111,嚴禁投入家用垃圾，違者重罰新台幣6000元
大同區,承德路,3段206號,121.5186111,25.07055556,嚴禁投入家用垃圾，違者重罰新台幣6000元
大同區,承德路,3段160號,121.5186111,25.06888889,嚴禁投入家用垃圾，違者重罰新台幣6000元
大同區,民族西路,80號,121.5175,25.06833333,嚴禁投入家用垃圾，違者重罰新台幣6000元
大同區,承德路,3段152號,121.5183333,25.06833333,嚴禁投入家用垃圾，違者重罰新台幣6000元
大同區,承德路,3段52號,121.5186111,25.065,嚴禁投入家用垃圾，違者重罰新台幣6000元
大同區,民權西路,125號,121.5175,25.06277778,嚴禁投入家用垃圾，違者重罰新台幣6000元
大同區,民權西路,151號,121.5169444,25.06277778,嚴禁投入家用垃圾，違者重罰新台幣6000元
大同區,民權西路,大龍街公車站,121.5163889,25.06277778,嚴禁投入家用垃圾，違者重罰新台幣6000元
大同區,民權西路,221號,121.5144444,25.06305556,嚴禁投入家用垃圾，違者重罰新台幣6000元
大同區,重慶北路,3段11號,121.5136111,25.06444444,嚴禁投入家用垃圾，違者重罰新台幣6000元
大同區,重慶北路,3段昌吉街口公車站內,121.5136111,25.06583333,嚴禁投入家用垃圾，違者重罰新台幣6000元
大同區,重慶北路,3段昌吉街公車站,121.5138889,25.06583333,嚴禁投入家用垃圾，違者重罰新台幣6000元
大同區,重慶北路,3段57號,121.5136111,25.06611111,嚴禁投入家用垃圾，違者重罰新台幣6000元
大同區,重慶北路,3段民族西路公車站,121.5136111,25.06805556,嚴禁投入家用垃圾，違者重罰新台幣6000元
大同區,重慶北路,3段民族西路公車站,121.5136111,25.06833333,嚴禁投入家用垃圾，違者重罰新台幣6000元
大同區,重慶北路,3段145號,121.5136111,25.06833333,嚴禁投入家用垃圾，違者重罰新台幣6000元
大同區,重慶北路,3段179號,121.5133333,25.06916667,嚴禁投入家用垃圾，違者重罰新台幣6000元
大同區,重慶北路,3段203號,121.5138889,25.07,嚴禁投入家用垃圾，違者重罰新台幣6000元
大同區,重慶北路,3段酒泉街公車站,121.5136111,25.07194444,嚴禁投入家用垃圾，違者重罰新台幣6000元
大同區,重慶北路,3段酒泉街公車站,121.5138889,25.07194444,嚴禁投入家用垃圾，違者重罰新台幣6000元
大同區,重慶北路,3段333號,121.5138889,25.07472222,嚴禁投入家用垃圾，違者重罰新台幣6000元
大同區,重慶北路,3段347號啟聰學校站牌,121.5138889,25.075,嚴禁投入家用垃圾，違者重罰新台幣6000元
大同區,延平北路,4段235巷口對面左邊,121.5119444,25.07611111,嚴禁投入家用垃圾，違者重罰新台幣6000元
大同區,延平北路,4段229號對面,121.5116667,25.07527778,嚴禁投入家用垃圾，違者重罰新台幣6000元
大同區,延平北路,4段(啟聰學校後門)左,121.5116667,25.07472222,嚴禁投入家用垃圾，違者重罰新台幣6000元
大同區,延平北路,4段193號對面,121.5111111,25.07416667,嚴禁投入家用垃圾，違者重罰新台幣6000元
大同區,延平北路,4段155號對面,121.5111111,25.07305556,嚴禁投入家用垃圾，違者重罰新台幣6000元
大同區,酒泉街,235號左邊,121.5105556,25.07222222,嚴禁投入家用垃圾，違者重罰新台幣6000元
大同區,酒泉街,235號右邊,121.5102778,25.07222222,嚴禁投入家用垃圾，違者重罰新台幣6000元
大同區,酒泉街,226號對面,121.51,25.07222222,嚴禁投入家用垃圾，違者重罰新台幣6000元
大同區,環河北路,2段(污水廠天橋下),121.5088889,25.07444444,嚴禁投入家用垃圾，違者重罰新台幣6000元
大同區,環河北路,2段敦煌路口,121.5097222,25.07611111,嚴禁投入家用垃圾，違者重罰新台幣6000元
大同區,敦煌路,165號對面,121.5108333,25.07638889,嚴禁投入家用垃圾，違者重罰新台幣6000元
大同區,重慶北路,3段338號,121.5136111,25.07611111,嚴禁投入家用垃圾，違者重罰新台幣6000元
大同區,重慶北路,3段320號左側,121.5136111,25.075,嚴禁投入家用垃圾，違者重罰新台幣6000元
大同區,重慶北路,3段320號右側,121.5136111,25.07444444,嚴禁投入家用垃圾，違者重罰新台幣6000元
大同區,重慶北路,3段298號,121.5136111,25.07361111,嚴禁投入家用垃圾，違者重罰新台幣6000元
大同區,重慶北路,3段288號,121.5136111,25.07361111,嚴禁投入家用垃圾，違者重罰新台幣6000元
大同區,重慶北路,3段276號,121.5136111,25.07222222,嚴禁投入家用垃圾，違者重罰新台幣6000元
大同區,酒泉街,157號公車站牌,121.5133333,25.07222222,嚴禁投入家用垃圾，違者重罰新台幣6000元
大同區,酒泉街,157號(正門口),121.5133333,25.07222222,嚴禁投入家用垃圾，違者重罰新台幣6000元
大同區,酒泉街,221號公車站牌,121.5113889,25.07222222,嚴禁投入家用垃圾，違者重罰新台幣6000元
大同區,重慶北路,3段272號,121.5138889,25.07222222,嚴禁投入家用垃圾，違者重罰新台幣6000元
大同區,重慶北路,3段250-1號,121.5136111,25.07083333,嚴禁投入家用垃圾，違者重罰新台幣6000元
大同區,重慶北路,3段232號,121.5136111,25.07027778,嚴禁投入家用垃圾，違者重罰新台幣6000元
大同區,重慶北路,3段208號,121.5136111,25.07055556,嚴禁投入家用垃圾，違者重罰新台幣6000元
大同區,重慶北路,3段186號,121.5138889,25.07055556,嚴禁投入家用垃圾，違者重罰新台幣6000元
大同區,重慶北路,3段178號公車站牌,121.5136111,25.06888889,嚴禁投入家用垃圾，違者重罰新台幣6000元
大同區,重慶北路,3段172號,121.5138889,25.06888889,嚴禁投入家用垃圾，違者重罰新台幣6000元
大同區,重慶北路,三段168號對面公車站,121.5136111,25.06888889,嚴禁投入家用垃圾，違者重罰新台幣6000元
大同區,民族西路,217號,121.5133333,25.06861111,嚴禁投入家用垃圾，違者重罰新台幣6000元
大同區,民族西路,223之8號,121.5125,25.06861111,嚴禁投入家用垃圾，違者重罰新台幣6000元
大同區,民族西路,223-17號,121.5122222,25.06861111,嚴禁投入家用垃圾，違者重罰新台幣6000元
大同區,民族西路,233號,121.5119444,25.06861111,嚴禁投入家用垃圾，違者重罰新台幣6000元
大同區,民族西路,246號,121.5125,25.06861111,嚴禁投入家用垃圾，違者重罰新台幣6000元
大同區,民族西路,236號,121.5127778,25.06861111,嚴禁投入家用垃圾，違者重罰新台幣6000元
大同區,民族西路,226號公車站牌,121.5130556,25.06861111,嚴禁投入家用垃圾，違者重罰新台幣6000元
大同區,民族西路,重慶北路三段口,121.5136111,25.06833333,嚴禁投入家用垃圾，違者重罰新台幣6000元
大同區,重慶北路,3段164號,121.5136111,25.06833333,嚴禁投入家用垃圾，違者重罰新台幣6000元
大同區,重慶北路,3段138號,121.5136111,25.06777778,嚴禁投入家用垃圾，違者重罰新台幣6000元
大同區,重慶北路,3段124號,121.5136111,25.0675,嚴禁投入家用垃圾，違者重罰新台幣6000元
大同區,重慶北路,三段84號對面公車站,121.5133333,25.06638889,嚴禁投入家用垃圾，違者重罰新台幣6000元
大同區,重慶北路,三段80號對面公車站,121.5133333,25.06638889,嚴禁投入家用垃圾，違者重罰新台幣6000元
大同區,重慶北路,3段54號,121.5136111,25.06555556,嚴禁投入家用垃圾，違者重罰新台幣6000元
大同區,重慶北路,3段44號,121.5136111,25.06555556,嚴禁投入家用垃圾，違者重罰新台幣6000元
大同區,重慶北路,3段20號,121.5136111,25.06472222,嚴禁投入家用垃圾，違者重罰新台幣6000元
大同區,重慶北路,3段2號,121.5136111,25.06444444,嚴禁投入家用垃圾，違者重罰新台幣6000元
大同區,重慶北路,三段2號(大橋頭捷運三號出口),121.5138889,25.06388889,嚴禁投入家用垃圾，違者重罰新台幣6000元
大同區,重慶北路,3段重慶.民權路口公車專用道,121.5136111,25.06333333,嚴禁投入家用垃圾，違者重罰新台幣6000元
大同區,民權西路,大橋頭捷運二號出口,121.5122222,25.06305556,嚴禁投入家用垃圾，違者重罰新台幣6000元
大同區,民權西路,大橋頭捷運一號出口,121.5122222,25.06333333,嚴禁投入家用垃圾，違者重罰新台幣6000元
大同區,民權西路,237號電箱旁,121.5113889,25.06305556,嚴禁投入家用垃圾，違者重罰新台幣6000元
大同區,延平北路,3段3號,121.5113889,25.06333333,嚴禁投入家用垃圾，違者重罰新台幣6000元
大同區,延平北路,3段4號(地下道出口),121.5111111,25.06333333,嚴禁投入家用垃圾，違者重罰新台幣6000元
大同區,民族西路,310號,121.5111111,25.06833333,嚴禁投入家用垃圾，違者重罰新台幣6000元
大同區,民族西路,269號旁,121.5108333,25.06888889,嚴禁投入家用垃圾，違者重罰新台幣6000元
大同區,重慶北路,2段涼州街口站牌,121.5133333,25.06166667,嚴禁投入家用垃圾，違者重罰新台幣6000元
大同區,重慶北路,2段涼州街口站牌,121.5133333,25.06138889,嚴禁投入家用垃圾，違者重罰新台幣6000元
大同區,重慶北路,2段涼州街口站牌,121.5136111,25.06111111,嚴禁投入家用垃圾，違者重罰新台幣6000元
大同區,重慶北路,二段涼州街口(公車專用道),121.5136111,25.06083333,嚴禁投入家用垃圾，違者重罰新台幣6000元
大同區,重慶北路,2段涼州街口公車專用道,121.5136111,25.06111111,嚴禁投入家用垃圾，違者重罰新台幣6000元
大同區,重慶北路,2段涼州街口西南側,121.5133333,25.06027778,嚴禁投入家用垃圾，違者重罰新台幣6000元
大同區,重慶北路,2段148號,121.5136111,25.05861111,嚴禁投入家用垃圾，違者重罰新台幣6000元
大同區,重慶北路,2段140號,121.5138889,25.05833333,嚴禁投入家用垃圾，違者重罰新台幣6000元
大同區,重慶北路,二段民生西路口(公車專用道),121.5138889,25.05694444,嚴禁投入家用垃圾，違者重罰新台幣6000元
大同區,重慶北路,2段民生西路口公車專用道,121.5136111,25.05722222,嚴禁投入家用垃圾，違者重罰新台幣6000元
大同區,重慶北路,2段64巷口,121.5136111,25.05583333,嚴禁投入家用垃圾，違者重罰新台幣6000元
大同區,重慶北路,2段32號,121.5141667,25.05527778,嚴禁投入家用垃圾，違者重罰新台幣6000元
大同區,重慶北路,1段116號,121.5144444,25.05361111,嚴禁投入家用垃圾，違者重罰新台幣6000元
大同區,重慶北路,1段92號,121.5141667,25.05277778,嚴禁投入家用垃圾，違者重罰新台幣6000元
大同區,重慶北路,1段62號,121.5141667,25.05222222,嚴禁投入家用垃圾，違者重罰新台幣6000元
大同區,重慶北路,1段26號,121.5138889,25.05055556,嚴禁投入家用垃圾，違者重罰新台幣6000元
大同區,重慶北路,1段24號,121.5138889,25.05055556,嚴禁投入家用垃圾，違者重罰新台幣6000元
大同區,重慶北路,1段鄭州路口,121.5136111,25.04972222,嚴禁投入家用垃圾，違者重罰新台幣6000元
大同區,延平北路,1段53號,121.5119444,25.05111111,嚴禁投入家用垃圾，違者重罰新台幣6000元
大同區,延平北路,二段17號,121.5116667,25.05472222,嚴禁投入家用垃圾，違者重罰新台幣6000元
大同區,延平北路,2段217號,121.5111111,25.05972222,嚴禁投入家用垃圾，違者重罰新台幣6000元
大同區,延平北路,二段255號前(大樹下),121.5113889,25.0625,嚴禁投入家用垃圾，違者重罰新台幣6000元
大同區,延平北路,2段286號,121.5111111,25.06277778,嚴禁投入家用垃圾，違者重罰新台幣6000元
大同區,延平北路,一段80號,121.5119444,25.05194444,嚴禁投入家用垃圾，違者重罰新台幣6000元
大同區,延平北路,一段26號,121.5119444,25.05194444,嚴禁投入家用垃圾，違者重罰新台幣6000元
大同區,塔城街,市民大道口捷運北門站2號出口,121.5102778,25.04944444,嚴禁投入家用垃圾，違者重罰新台幣6000元
大同區,塔城街,塔城公園,121.5108333,25.05083333,嚴禁投入家用垃圾，違者重罰新台幣6000元
大同區,塔城街,36號對面公車站牌,121.5105556,25.05166667,嚴禁投入家用垃圾，違者重罰新台幣6000元
大同區,塔城街,24號前(電信局),121.5111111,25.05083333,嚴禁投入家用垃圾，違者重罰新台幣6000元
大同區,塔城街,市民大道口捷運北門站1號出口,121.51,25.04888889,嚴禁投入家用垃圾，違者重罰新台幣6000元
大同區,塔城街,市民大道口捷運北門站3號出口,121.5102778,25.05,嚴禁投入家用垃圾，違者重罰新台幣6000元
大同區,鄭州路,26巷口旁,121.5088889,25.05027778,嚴禁投入家用垃圾，違者重罰新台幣6000元
大同區,鄭州路,145號中興醫院東側,121.5094444,25.05055556,嚴禁投入家用垃圾，違者重罰新台幣6000元
大同區,鄭州路,145號中興醫院西側,121.5086111,25.05055556,嚴禁投入家用垃圾，違者重罰新台幣6000元
大同區,西寧北路,中興醫院站牌,121.5086111,25.05138889,嚴禁投入家用垃圾，違者重罰新台幣6000元
大同區,西寧北路,中興醫院急診室車道右側,121.5086111,25.05138889,嚴禁投入家用垃圾，違者重罰新台幣6000元
大同區,西寧北路,32號(忠孝國中),121.5086111,25.05138889,嚴禁投入家用垃圾，違者重罰新台幣6000元
大同區,西寧北路,32號(忠孝國中南側),121.5083333,25.05111111,嚴禁投入家用垃圾，違者重罰新台幣6000元
大同區,南京西路,350號,121.5113889,25.05388889,嚴禁投入家用垃圾，違者重罰新台幣6000元
大同區,南京西路,301號西寧北路口,121.5086111,25.05361111,嚴禁投入家用垃圾，違者重罰新台幣6000元
大同區,長安西路,298號,121.5125,25.05194444,嚴禁投入家用垃圾，違者重罰新台幣6000元
大同區,長安西路,303號對面大樹下,121.5077778,25.05194444,嚴禁投入家用垃圾，違者重罰新台幣6000元
大同區,民權西路,146號(98型),121.5161111,25.06305556,嚴禁投入家用垃圾，違者重罰新台幣6000元
大同區,民權西路,136號,121.5161111,25.06277778,嚴禁投入家用垃圾，違者重罰新台幣6000元
大同區,民權西路,102巷公車專用道內,121.5180556,25.0625,嚴禁投入家用垃圾，違者重罰新台幣6000元
大同區,承德路,民權西路口承德路二段206號(98型),121.5180556,25.06194444,嚴禁投入家用垃圾，違者重罰新台幣6000元
大同區,承德路,2段168號(98型),121.5180556,25.06111111,嚴禁投入家用垃圾，違者重罰新台幣6000元
大同區,承德路,2段152號,121.5180556,25.06,嚴禁投入家用垃圾，違者重罰新台幣6000元
大同區,承德路,承德路民生西路149號旁天橋下,121.5177778,25.0575,嚴禁投入家用垃圾，違者重罰新台幣6000元
大同區,承德路,民生西路160號承德路口天橋下,121.5183333,25.0575,嚴禁投入家用垃圾，違者重罰新台幣6000元
大同區,承德路,2段54號,121.5180556,25.05694444,嚴禁投入家用垃圾，違者重罰新台幣6000元
大同區,承德路,2段2號,121.5180556,25.055,嚴禁投入家用垃圾，違者重罰新台幣6000元
大同區,承德路,1段40號,121.5175,25.05138889,嚴禁投入家用垃圾，違者重罰新台幣6000元
大同區,承德路,1段原台汽站前,121.5169444,25.04916667,嚴禁投入家用垃圾，違者重罰新台幣6000元
大同區,承德路,1段原台汽站前,121.5002778,25.04972222,嚴禁投入家用垃圾，違者重罰新台幣6000元
大同區,台北車站,天橋(98型),121.5163889,25.04916667,嚴禁投入家用垃圾，違者重罰新台幣6000元
大同區,台北車站,天橋(98型),121.5166667,25.04888889,嚴禁投入家用垃圾，違者重罰新台幣6000元
大同區,承德路,2段143號,121.5183333,25.05777778,嚴禁投入家用垃圾，違者重罰新台幣6000元
大同區,承德路,2段209號,121.5180556,25.05916667,嚴禁投入家用垃圾，違者重罰新台幣6000元
大同區,承德路,2段成淵高中前公車站牌,121.5180556,25.06055556,嚴禁投入家用垃圾，違者重罰新台幣6000元
大同區,民權西路,84號(花圃旁),121.5191667,25.06277778,嚴禁投入家用垃圾，違者重罰新台幣6000元
大同區,太原路,42號前(89型),121.5152778,25.05027778,嚴禁投入家用垃圾，違者重罰新台幣6000元
大同區,重慶北路,１段１號前(89型),121.5133333,25.04972222,嚴禁投入家用垃圾，違者重罰新台幣6000元
大同區,重慶北路,1段25號,121.5133333,25.05027778,嚴禁投入家用垃圾，違者重罰新台幣6000元
大同區,重慶北路,1段上(長安西路244號)路口,121.5138889,25.05138889,嚴禁投入家用垃圾，違者重罰新台幣6000元
大同區,重慶北路,1段85之3號(大桶),121.5136111,25.05277778,嚴禁投入家用垃圾，違者重罰新台幣6000元
大同區,重慶北路,2段15號,121.5144444,25.05444444,嚴禁投入家用垃圾，違者重罰新台幣6000元
大同區,重慶北路,2段63號,121.5144444,25.05555556,嚴禁投入家用垃圾，違者重罰新台幣6000元
大同區,重慶北路,2段101號公車專用道內,121.5136111,25.05666667,嚴禁投入家用垃圾，違者重罰新台幣6000元
大同區,重慶北路,民生西路256號(大桶),121.5138889,25.05694444,嚴禁投入家用垃圾，違者重罰新台幣6000元
大同區,重慶北路,2段173號,121.5136111,25.05944444,嚴禁投入家用垃圾，違者重罰新台幣6000元
大同區,重慶北路,2段201號公車專用道內,121.5130556,25.06027778,嚴禁投入家用垃圾，違者重罰新台幣6000元
大同區,重慶北路,2段201號公車專用道內(98型),121.5133333,25.06055556,嚴禁投入家用垃圾，違者重罰新台幣6000元
大同區,重慶北路,2段229之9號,121.5136111,25.06194444,嚴禁投入家用垃圾，違者重罰新台幣6000元
大同區,重慶北路,2段243號公車專用道內,121.5136111,25.06277778,嚴禁投入家用垃圾，違者重罰新台幣6000元
大同區,錦西街,蔣渭水公園(大桶)行人道上,121.5166667,25.06,嚴禁投入家用垃圾，違者重罰新台幣6000元
大同區,錦西街,雙連國小(大桶)行人道上,121.5169444,25.06,嚴禁投入家用垃圾，違者重罰新台幣6000元
大同區,民生西路,239號前機車格旁,121.5155556,25.05694444,嚴禁投入家用垃圾，違者重罰新台幣6000元
大同區,民生西路,241號天主堂旁公車站牌,121.5152778,25.05722222,嚴禁投入家用垃圾，違者重罰新台幣6000元
大同區,民生西路,198之22號(左前方)電箱旁,121.5158333,25.05694444,嚴禁投入家用垃圾，違者重罰新台幣6000元
大同區,平陽街,10號斜對面行人道上,121.5163889,25.05527778,嚴禁投入家用垃圾，違者重罰新台幣6000元
大同區,平陽街,44號對面,121.5155556,25.05555556,嚴禁投入家用垃圾，違者重罰新台幣6000元
大同區,南京西路,30號前,121.5197222,25.0525,嚴禁投入家用垃圾，違者重罰新台幣6000元
大同區,南京西路,33號前,121.5197222,25.05305556,嚴禁投入家用垃圾，違者重罰新台幣6000元
大同區,南京西路,79號公車站牌,121.5186111,25.05277778,嚴禁投入家用垃圾，違者重罰新台幣6000元
大同區,南京西路,日新國小南側公車站牌,121.5172222,25.05333333,嚴禁投入家用垃圾，違者重罰新台幣6000元
大同區,南京西路,123號前,121.515,25.05416667,嚴禁投入家用垃圾，違者重罰新台幣6000元
大同區,寧夏路,1號旁,121.515,25.05416667,嚴禁投入家用垃圾，違者重罰新台幣6000元
大同區,南京西路,244號前公車站牌,121.5158333,25.05388889,嚴禁投入家用垃圾，違者重罰新台幣6000元
大同區,長安西路,59號(大桶),121.5172222,25.05083333,嚴禁投入家用垃圾，違者重罰新台幣6000元
大同區,民生西路,212號公車站牌,121.5152778,25.05722222,嚴禁投入家用垃圾，違者重罰新台幣6000元
大同區,重慶北路,3段225號,121.5136111,25.07055556,嚴禁投入家用垃圾，違者重罰新台幣6000元
大同區,重慶北路,3段269號,121.5136111,25.07194444,嚴禁投入家用垃圾，違者重罰新台幣6000元
大安區,仁愛路,4段449號,121.5619444,25.04944444,嚴禁投入家用垃圾，違者重罰新台幣6000元
大安區,仁愛路,4段403號,121.5594444,25.04055556,嚴禁投入家用垃圾，違者重罰新台幣6000元
大安區,仁愛路,4段387號,121.5586111,25.04083333,嚴禁投入家用垃圾，違者重罰新台幣6000元
大安區,仁愛路,4段325號,121.5552778,25.04083333,嚴禁投入家用垃圾，違者重罰新台幣6000元
大安區,仁愛路,4段325號,121.5530556,25.03805556,嚴禁投入家用垃圾，違者重罰新台幣6000元
大安區,仁愛路,4段151號,121.5766667,25.04055556,嚴禁投入家用垃圾，違者重罰新台幣6000元
大安區,仁愛路,4段137號,121.5516667,25.04111111,嚴禁投入家用垃圾，違者重罰新台幣6000元
大安區,仁愛路,4段85號,121.5575,25.04166667,嚴禁投入家用垃圾，違者重罰新台幣6000元
大安區,仁愛路,4段79號,121.5569444,25.04055556,嚴禁投入家用垃圾，違者重罰新台幣6000元
大安區,仁愛路,4段37號,121.5544444,25.04055556,嚴禁投入家用垃圾，違者重罰新台幣6000元
大安區,仁愛路,4段3號,121.5513889,25.04138889,嚴禁投入家用垃圾，違者重罰新台幣6000元
大安區,仁愛路,4段1號,121.5511111,25.04138889,嚴禁投入家用垃圾，違者重罰新台幣6000元
大安區,仁愛路,3段2號,121.5333333,25.03805556,嚴禁投入家用垃圾，違者重罰新台幣6000元
大安區,仁愛路,3段22號右側,121.5344444,25.03777778,嚴禁投入家用垃圾，違者重罰新台幣6000元
大安區,仁愛路,3段22號對面公車候車亭,121.5344444,25.03805556,嚴禁投入家用垃圾，違者重罰新台幣6000元
大安區,仁愛路,3段24巷口,121.5355556,25.03777778,嚴禁投入家用垃圾，違者重罰新台幣6000元
大安區,仁愛路,3段34號對面公車候車亭,121.5369444,25.03805556,嚴禁投入家用垃圾，違者重罰新台幣6000元
大安區,仁愛路,3段74號前,121.5388889,25.03777778,嚴禁投入家用垃圾，違者重罰新台幣6000元
大安區,仁愛路,3段136號前公車候車亭,121.5408333,25.03805556,嚴禁投入家用垃圾，違者重罰新台幣6000元
大安區,仁愛路,3段160號,121.5433333,25.03777778,嚴禁投入家用垃圾，違者重罰新台幣6000元
大安區,仁愛路,3段145號,121.5433333,25.03833333,嚴禁投入家用垃圾，違者重罰新台幣6000元
大安區,仁愛路,3段55號右側,121.5408333,25.03861111,嚴禁投入家用垃圾，違者重罰新台幣6000元
大安區,仁愛路,3段55號左側,121.5397222,25.03861111,嚴禁投入家用垃圾，違者重罰新台幣6000元
大安區,仁愛路,3段55號旁公車候車亭,121.5394444,25.03833333,嚴禁投入家用垃圾，違者重罰新台幣6000元
大安區,仁愛路,3段55號左側小門前,121.5388889,25.03861111,嚴禁投入家用垃圾，違者重罰新台幣6000元
大安區,仁愛路,3段1號(快車道公車候車亭),121.5330556,25.03833333,嚴禁投入家用垃圾，違者重罰新台幣6000元
大安區,仁愛路,3段31巷口公車候車亭,121.535,25.03833333,嚴禁投入家用垃圾，違者重罰新台幣6000元
大安區,仁愛路,4段130號,121.5488889,25.03694444,嚴禁投入家用垃圾，違者重罰新台幣6000元
大安區,仁愛路,4段與安和路口,121.5511111,25.03805556,嚴禁投入家用垃圾，違者重罰新台幣6000元
大安區,仁愛路,4段414號 ,121.5608333,25.04055556,嚴禁投入家用垃圾，違者重罰新台幣6000元
大安區,仁愛路,4段130號公車站牌,121.5502778,25.03777778,嚴禁投入家用垃圾，違者重罰新台幣6000元
大安區,仁愛路,4段220號,121.5522222,25.04,嚴禁投入家用垃圾，違者重罰新台幣6000元
大安區,仁愛路,4段266巷口公車站牌,121.5513889,25.04055556,嚴禁投入家用垃圾，違者重罰新台幣6000元
大安區,仁愛路,4段314號公車站牌,121.5572222,25.02611111,嚴禁投入家用垃圾，違者重罰新台幣6000元
大安區,仁愛路,4段296號,121.5525,25.03777778,嚴禁投入家用垃圾，違者重罰新台幣6000元
大安區,仁愛路,4段416號(公車站牌前),121.5577778,25.04055556,嚴禁投入家用垃圾，違者重罰新台幣6000元
大安區,仁愛路,4段376號,121.5547222,25.03777778,嚴禁投入家用垃圾，違者重罰新台幣6000元
大安區,仁愛路,4段8巷口,121.5444444,25.03777778,嚴禁投入家用垃圾，違者重罰新台幣6000元
大安區,仁愛路,4段10號(大安路口公車道),121.5455556,25.0375,嚴禁投入家用垃圾，違者重罰新台幣6000元
大安區,仁愛路,4段10號(仁愛醫院正門口),121.5452778,25.0375,嚴禁投入家用垃圾，違者重罰新台幣6000元
大安區,仁愛路,4段大安路口(仁愛醫院),121.5458333,25.03777778,嚴禁投入家用垃圾，違者重罰新台幣6000元
大安區,仁愛路,4段62號,121.5475,25.03777778,嚴禁投入家用垃圾，違者重罰新台幣6000元
大安區,仁愛路,4段64號(公車道),121.5475,25.03777778,嚴禁投入家用垃圾，違者重罰新台幣6000元
大安區,仁愛路,4段68號,121.5486111,25.03722222,嚴禁投入家用垃圾，違者重罰新台幣6000元
大安區,市民大道,4段100號,121.5605556,25.05194444,嚴禁投入家用垃圾，違者重罰新台幣6000元
大安區,光復南路,180巷口,121.5469444,25.04888889,嚴禁投入家用垃圾，違者重罰新台幣6000元
大安區,光復南路,180巷口,121.5630556,25.04861111,嚴禁投入家用垃圾，違者重罰新台幣6000元
大安區,光復南路,286號,121.5622222,25.04388889,嚴禁投入家用垃圾，違者重罰新台幣6000元
大安區,光復南路,348號,121.5625,25.04166667,嚴禁投入家用垃圾，違者重罰新台幣6000元
大安區,光復南路,408號前,121.5663889,25.03777778,嚴禁投入家用垃圾，違者重罰新台幣6000元
大安區,光復南路,550號前,121.5575,25.03583333,嚴禁投入家用垃圾，違者重罰新台幣6000元
大安區,光復南路,568號,121.5575,25.03527778,嚴禁投入家用垃圾，違者重罰新台幣6000元
大安區,光復南路,678號,121.5572222,25.03277778,嚴禁投入家用垃圾，違者重罰新台幣6000元
大安區,光復南路,678號,121.5572222,25.03277778,嚴禁投入家用垃圾，違者重罰新台幣6000元
大安區,光復南路,552號前,121.5575,25.03555556,嚴禁投入家用垃圾，違者重罰新台幣6000元
大安區,安和路,1段2號,121.5591667,25.045,嚴禁投入家用垃圾，違者重罰新台幣6000元
大安區,安和路,1段8號,121.5597222,25.04333333,嚴禁投入家用垃圾，違者重罰新台幣6000元
大安區,安和路,1段16號,121.5608333,25.04333333,嚴禁投入家用垃圾，違者重罰新台幣6000元
大安區,安和路,2段225號,121.5497222,25.02611111,嚴禁投入家用垃圾，違者重罰新台幣6000元
大安區,安和路,2段169號,121.5497222,25.02833333,嚴禁投入家用垃圾，違者重罰新台幣6000元
大安區,安和路,2段135號,121.5508333,25.02916667,嚴禁投入家用垃圾，違者重罰新台幣6000元
大安區,安和路,2段50號,121.5538889,25.03555556,嚴禁投入家用垃圾，違者重罰新台幣6000元
大安區,安和路,2段80號,121.5525,25.03861111,嚴禁投入家用垃圾，違者重罰新台幣6000元
大安區,安和路,2段92號,121.5511111,25.02944444,嚴禁投入家用垃圾，違者重罰新台幣6000元
大安區,安和路,2段122號,121.55,25.02805556,嚴禁投入家用垃圾，違者重罰新台幣6000元
大安區,安和路,2段遠企前,121.5497222,25.02638889,嚴禁投入家用垃圾，違者重罰新台幣6000元
大安區,安和路,1段91號,121.5513889,25.03722222,嚴禁投入家用垃圾，違者重罰新台幣6000元
大安區,安和路,1段61號,121.5513889,25.0375,嚴禁投入家用垃圾，違者重罰新台幣6000元
大安區,安和路,1段仁愛國中旁,121.5502778,25.03777778,嚴禁投入家用垃圾，違者重罰新台幣6000元
大安區,安和路,1段仁愛國小旁,121.5513889,25.0375,嚴禁投入家用垃圾，違者重罰新台幣6000元
大安區,辛亥路,3段81號,121.5463889,25.02,嚴禁投入家用垃圾，違者重罰新台幣6000元
大安區,辛亥路,3段55號,121.5455556,25.02083333,嚴禁投入家用垃圾，違者重罰新台幣6000元
大安區,辛亥路,3段37號,121.5452778,25.02111111,嚴禁投入家用垃圾，違者重罰新台幣6000元
大安區,辛亥路,2段2號,121.5358333,25.02222222,嚴禁投入家用垃圾，違者重罰新台幣6000元
大安區,辛亥路,2段2號,121.5358333,25.02222222,嚴禁投入家用垃圾，違者重罰新台幣6000元
大安區,辛亥路,2段雙號,121.5372222,25.02222222,嚴禁投入家用垃圾，違者重罰新台幣6000元
大安區,辛亥路,2段170號,121.5408333,25.02111111,嚴禁投入家用垃圾，違者重罰新台幣6000元
大安區,辛亥路,3段雙號,121.5436111,25.02083333,嚴禁投入家用垃圾，違者重罰新台幣6000元
大安區,辛亥路,3段30號,121.5444444,25.02083333,嚴禁投入家用垃圾，違者重罰新台幣6000元
大安區,辛亥路,3段200號,121.5477778,25.0175,嚴禁投入家用垃圾，違者重罰新台幣6000元
大安區,辛亥路,3段284號,121.5513889,25.01527778,嚴禁投入家用垃圾，違者重罰新台幣6000元
大安區,辛亥路,3段330號,121.5530556,25.01361111,嚴禁投入家用垃圾，違者重罰新台幣6000元
大安區,辛亥路,2段85號,121.5383333,25.0225,嚴禁投入家用垃圾，違者重罰新台幣6000元
大安區,辛亥路,1段130號,121.5336111,25.02222222,嚴禁投入家用垃圾，違者重罰新台幣6000元
大安區,和平東路,3段111號,121.5513889,25.02444444,嚴禁投入家用垃圾，違者重罰新台幣6000元
大安區,和平東路,3段85號前,121.55,25.02472222,嚴禁投入家用垃圾，違者重罰新台幣6000元
大安區,和平東路,3段63號前,121.5486111,25.025,嚴禁投入家用垃圾，違者重罰新台幣6000元
大安區,和平東路,1段22號,121.5283333,25.03361111,嚴禁投入家用垃圾，違者重罰新台幣6000元
大安區,和平東路,1段74號,121.5297222,25.03361111,嚴禁投入家用垃圾，違者重罰新台幣6000元
大安區,和平東路,1段125號,121.535,25.03333333,嚴禁投入家用垃圾，違者重罰新台幣6000元
大安區,和平東路,1段129號,121.5388889,25.03305556,嚴禁投入家用垃圾，違者重罰新台幣6000元
大安區,和平東路,1段153號,121.5408333,25.03277778,嚴禁投入家用垃圾，違者重罰新台幣6000元
大安區,和平東路,1段162號(停車場1),121.5330556,25.03333333,嚴禁投入家用垃圾，違者重罰新台幣6000元
大安區,和平東路,1段162號(師大門口1),121.5344444,25.03333333,嚴禁投入家用垃圾，違者重罰新台幣6000元
大安區,和平東路,1段(師大宿舍),121.5375,25.03333333,嚴禁投入家用垃圾，違者重罰新台幣6000元
大安區,和平東路,1段181號,121.5433333,25.03305556,嚴禁投入家用垃圾，違者重罰新台幣6000元
大安區,和平東路,1段184號,121.5391667,25.03277778,嚴禁投入家用垃圾，違者重罰新台幣6000元
大安區,和平東路,1段250號,121.5438889,25.0325,嚴禁投入家用垃圾，違者重罰新台幣6000元
大安區,和平東路,1段280號,121.535,25.03222222,嚴禁投入家用垃圾，違者重罰新台幣6000元
大安區,和平東路,1段與新生南路口,121.5352778,25.03277778,嚴禁投入家用垃圾，違者重罰新台幣6000元
大安區,和平東路,2段(大安森林公園站牌),121.5363889,25.02611111,嚴禁投入家用垃圾，違者重罰新台幣6000元
大安區,和平東路,2段49號,121.5375,25.02611111,嚴禁投入家用垃圾，違者重罰新台幣6000元
大安區,和平東路,2段63號,121.5386111,25.02555556,嚴禁投入家用垃圾，違者重罰新台幣6000元
大安區,和平東路,2段(瑞安街口),121.5388889,25.02555556,嚴禁投入家用垃圾，違者重罰新台幣6000元
大安區,和平東路,2段131號(師院附小站牌),121.54,25.02555556,嚴禁投入家用垃圾，違者重罰新台幣6000元
大安區,和平東路,2段191號(復興南路口站牌),121.5422222,25.02472222,嚴禁投入家用垃圾，違者重罰新台幣6000元
大安區,和平東路,2段225號,121.5422222,25.02444444,嚴禁投入家用垃圾，違者重罰新台幣6000元
大安區,和平東路,2段134號,121.545,25.02472222,嚴禁投入家用垃圾，違者重罰新台幣6000元
大安區,和平東路,3段14號,121.5472222,25.02472222,嚴禁投入家用垃圾，違者重罰新台幣6000元
大安區,和平東路,3段46號 ,121.5477778,25.02472222,嚴禁投入家用垃圾，違者重罰新台幣6000元
大安區,和平東路,3段15號,121.5475,25.025,嚴禁投入家用垃圾，違者重罰新台幣6000元
大安區,和平東路,2段301號,121.545,25.025,嚴禁投入家用垃圾，違者重罰新台幣6000元
大安區,和平東路,3段60號,121.5491667,25.02444444,嚴禁投入家用垃圾，違者重罰新台幣6000元
大安區,和平東路,3段76號,121.5508333,25.02444444,嚴禁投入家用垃圾，違者重罰新台幣6000元
大安區,和平東路,3段168號,121.5525,25.02416667,嚴禁投入家用垃圾，違者重罰新台幣6000元
大安區,和平東路,3段170號前,121.5536111,25.02333333,嚴禁投入家用垃圾，違者重罰新台幣6000元
大安區,和平東路,2段2號,121.5352778,25.02583333,嚴禁投入家用垃圾，違者重罰新台幣6000元
大安區,和平東路,2段18之9號,121.5361111,25.02583333,嚴禁投入家用垃圾，違者重罰新台幣6000元
大安區,和平東路,2段46號,121.5380556,25.02555556,嚴禁投入家用垃圾，違者重罰新台幣6000元
大安區,和平東路,2段54號,121.5383333,25.02527778,嚴禁投入家用垃圾，違者重罰新台幣6000元
大安區,和平東路,2段108號,121.5419444,25.025,嚴禁投入家用垃圾，違者重罰新台幣6000元
大安區,忠孝東路,3段10巷口旁公車候車亭,121.5341667,25.04194444,嚴禁投入家用垃圾，違者重罰新台幣6000元
大安區,忠孝東路,3段46號前,121.535,25.04194444,嚴禁投入家用垃圾，違者重罰新台幣6000元
大安區,忠孝東路,3段150號,121.5380556,25.04166667,嚴禁投入家用垃圾，違者重罰新台幣6000元
大安區,忠孝東路,3段214號前,121.5416667,25.04111111,嚴禁投入家用垃圾，違者重罰新台幣6000元
大安區,忠孝東路,3段242號,121.5425,25.04083333,嚴禁投入家用垃圾，違者重罰新台幣6000元
大安區,忠孝東路,3段276巷口,121.5436111,25.04,嚴禁投入家用垃圾，違者重罰新台幣6000元
大安區,忠孝東路,3段287號前,121.5427778,25.04111111,嚴禁投入家用垃圾，違者重罰新台幣6000元
大安區,忠孝東路,3段279號,121.5425,25.04138889,嚴禁投入家用垃圾，違者重罰新台幣6000元
大安區,忠孝東路,3段245號前,121.5408333,25.04166667,嚴禁投入家用垃圾，違者重罰新台幣6000元
大安區,忠孝東路,3段203號前,121.5388889,25.04138889,嚴禁投入家用垃圾，違者重罰新台幣6000元
大安區,忠孝東路,3段1號左側行人地下道口,121.5347222,25.04222222,嚴禁投入家用垃圾，違者重罰新台幣6000元
大安區,忠孝東路,3段1號左側公車候車亭,121.5341667,25.04222222,嚴禁投入家用垃圾，違者重罰新台幣6000元
大安區,忠孝東路,4段4號,121.5511111,25.04722222,嚴禁投入家用垃圾，違者重罰新台幣6000元
大安區,忠孝東路,4段128號,121.5572222,25.04694444,嚴禁投入家用垃圾，違者重罰新台幣6000元
大安區,忠孝東路,4段162號,121.5502778,25.04722222,嚴禁投入家用垃圾，違者重罰新台幣6000元
大安區,忠孝東路,4段212號,121.5547222,25.04666667,嚴禁投入家用垃圾，違者重罰新台幣6000元
大安區,忠孝東路,4段226號,121.5555556,25.04694444,嚴禁投入家用垃圾，違者重罰新台幣6000元
大安區,忠孝東路,4段300號,121.5602778,25.04638889,嚴禁投入家用垃圾，違者重罰新台幣6000元
大安區,忠孝東路,4段325號,121.5605556,25.04722222,嚴禁投入家用垃圾，違者重罰新台幣6000元
大安區,忠孝東路,4段233號,121.5555556,25.04638889,嚴禁投入家用垃圾，違者重罰新台幣6000元
大安區,忠孝東路,4段219號,121.5541667,25.04694444,嚴禁投入家用垃圾，違者重罰新台幣6000元
大安區,忠孝東路,4段167號,121.5502778,25.04694444,嚴禁投入家用垃圾，違者重罰新台幣6000元
大安區,忠孝東路,4段71號,121.5552778,25.0475,嚴禁投入家用垃圾，違者重罰新台幣6000元
大安區,忠孝東路,3號,121.5511111,25.04694444,嚴禁投入家用垃圾，違者重罰新台幣6000元
大安區,金山南路,2段1號,121.5341667,25.03416667,嚴禁投入家用垃圾，違者重罰新台幣6000元
大安區,金山南路,2段12號,121.5341667,25.03333333,嚴禁投入家用垃圾，違者重罰新台幣6000元
大安區,金山南路,2段25號,121.5338889,25.04416667,嚴禁投入家用垃圾，違者重罰新台幣6000元
大安區,金山南路,2段52號1,121.5336111,25.04333333,嚴禁投入家用垃圾，違者重罰新台幣6000元
大安區,金山南路,2段52號2,121.5336111,25.04305556,嚴禁投入家用垃圾，違者重罰新台幣6000元
大安區,金山南路,2段愛國東路口,121.5333333,25.04138889,嚴禁投入家用垃圾，違者重罰新台幣6000元
大安區,金山南路,2段235號,121.5322222,25.03388889,嚴禁投入家用垃圾，違者重罰新台幣6000元
大安區,信義路,3段1號前公車候車亭,121.5166667,25.03388889,嚴禁投入家用垃圾，違者重罰新台幣6000元
大安區,信義路,3段59號前公車候車亭,121.5361111,25.03361111,嚴禁投入家用垃圾，違者重罰新台幣6000元
大安區,信義路,3段99巷口公車候車亭,121.5383333,25.03361111,嚴禁投入家用垃圾，違者重罰新台幣6000元
大安區,信義路,3段147巷口公車候車亭,121.5422222,25.03333333,嚴禁投入家用垃圾，違者重罰新台幣6000元
大安區,信義路,4段214號前,121.5525,25.0325,嚴禁投入家用垃圾，違者重罰新台幣6000元
大安區,信義路,4段137號(公車站牌前),121.5658333,25.03333333,嚴禁投入家用垃圾，違者重罰新台幣6000元
大安區,信義路,4段225號(公車站牌前),121.5525,25.03333333,嚴禁投入家用垃圾，違者重罰新台幣6000元
大安區,信義路,4段275號(公車站牌前),121.5544444,25.03305556,嚴禁投入家用垃圾，違者重罰新台幣6000元
大安區,信義路,4段186號(公車站牌前),121.5519444,25.03333333,嚴禁投入家用垃圾，違者重罰新台幣6000元
大安區,信義路,4段258號(公車站牌前),121.5541667,25.03472222,嚴禁投入家用垃圾，違者重罰新台幣6000元
大安區,信義路,4段416號(公車站牌前),121.5566667,25.03333333,嚴禁投入家用垃圾，違者重罰新台幣6000元
大安區,信義路,2段88號(公車專用道),121.5338889,25.03444444,嚴禁投入家用垃圾，違者重罰新台幣6000元
大安區,信義路,2段180號(公車專用道),121.5383333,25.03388889,嚴禁投入家用垃圾，違者重罰新台幣6000元
大安區,信義路,2段230號(公車專用道),121.5427778,25.03361111,嚴禁投入家用垃圾，違者重罰新台幣6000元
大安區,信義路,3段與建國南路口,121.5372222,25.03361111,嚴禁投入家用垃圾，違者重罰新台幣6000元
大安區,信義路,3段43號對面森林公園捷運出口公車道,121.5358333,25.03361111,嚴禁投入家用垃圾，違者重罰新台幣6000元
大安區,信義路,3段128號,121.5391667,25.03305556,嚴禁投入家用垃圾，違者重罰新台幣6000元
大安區,信義路,3段132號(公車站牌),121.5391667,25.03333333,嚴禁投入家用垃圾，違者重罰新台幣6000元
大安區,信義路,3段196號(公車站牌),121.5433333,25.03361111,嚴禁投入家用垃圾，違者重罰新台幣6000元
大安區,信義路,4段1號(公車站牌),121.5436111,25.03305556,嚴禁投入家用垃圾，違者重罰新台幣6000元
大安區,信義路,4段60號(大安路口公車站牌),121.5405556,25.03333333,嚴禁投入家用垃圾，違者重罰新台幣6000元
大安區,信義路,4段89號(公車站牌),121.5463889,25.03333333,嚴禁投入家用垃圾，違者重罰新台幣6000元
大安區,信義路,4段98號前(敦化南路站牌),121.5483333,25.03333333,嚴禁投入家用垃圾，違者重罰新台幣6000元
大安區,建國南路,與信義路口東北角(建國側),121.5383333,25.03388889,嚴禁投入家用垃圾，違者重罰新台幣6000元
大安區,建國南路,1段275號前,121.5383333,25.03666667,嚴禁投入家用垃圾，違者重罰新台幣6000元
大安區,建國南路,1段237號,121.5383333,25.03722222,嚴禁投入家用垃圾，違者重罰新台幣6000元
大安區,建國南路,仁愛路(南往北)空軍總部圍牆人行道,121.5383333,25.03916667,嚴禁投入家用垃圾，違者重罰新台幣6000元
大安區,建國南路,1段177號前,121.5377778,25.04055556,嚴禁投入家用垃圾，違者重罰新台幣6000元
大安區,建國南路,1段166號前,121.5369444,25.04083333,嚴禁投入家用垃圾，違者重罰新台幣6000元
大安區,建國南路,1段252巷口,121.5375,25.03722222,嚴禁投入家用垃圾，違者重罰新台幣6000元
大安區,建國南路,1段340號前,121.5375,25.03444444,嚴禁投入家用垃圾，違者重罰新台幣6000元
大安區,建國南路,2段269號,121.5380556,25.02361111,嚴禁投入家用垃圾，違者重罰新台幣6000元
大安區,建國南路,2段306號,121.5372222,25.02416667,嚴禁投入家用垃圾，違者重罰新台幣6000元
大安區,師大路,1號宿舍1,121.5330556,25.025,嚴禁投入家用垃圾，違者重罰新台幣6000元
大安區,師大路,1號宿舍2,121.5363889,25.03222222,嚴禁投入家用垃圾，違者重罰新台幣6000元
大安區,師大路,41號對面公園1,121.5363889,25.03,嚴禁投入家用垃圾，違者重罰新台幣6000元
大安區,師大路,41號對面公園2,121.5363889,25.03,嚴禁投入家用垃圾，違者重罰新台幣6000元
大安區,基隆路,2段170號,121.5541667,25.02555556,嚴禁投入家用垃圾，違者重罰新台幣6000元
大安區,基隆路,2段178號,121.5541667,25.02583333,嚴禁投入家用垃圾，違者重罰新台幣6000元
大安區,基隆路,2段106號前,121.5572222,25.02972222,嚴禁投入家用垃圾，違者重罰新台幣6000元
大安區,基隆路,2段126號前,121.5569444,25.02944444,嚴禁投入家用垃圾，違者重罰新台幣6000元
大安區,基隆路,2段142號前,121.5566667,25.02861111,嚴禁投入家用垃圾，違者重罰新台幣6000元
大安區,基隆路,3段16號旁,121.5475,25.02027778,嚴禁投入家用垃圾，違者重罰新台幣6000元
大安區,基隆路,3段單號(和平高中站牌),121.5472222,25.01972222,嚴禁投入家用垃圾，違者重罰新台幣6000元
大安區,基隆路,2段220號,121.5516667,25.02361111,嚴禁投入家用垃圾，違者重罰新台幣6000元
大安區,基隆路,2段242號,121.5508333,25.02305556,嚴禁投入家用垃圾，違者重罰新台幣6000元
大安區,基隆路,2段207號,121.5519444,25.02388889,嚴禁投入家用垃圾，違者重罰新台幣6000元
大安區,基隆路,3段130號,121.5447222,25.01694444,嚴禁投入家用垃圾，違者重罰新台幣6000元
大安區,基隆路,4段雙號,121.5422222,25.01555556,嚴禁投入家用垃圾，違者重罰新台幣6000元
大安區,基隆路,4段雙號,121.5411111,25.01416667,嚴禁投入家用垃圾，違者重罰新台幣6000元
大安區,基隆路,4段75號,121.5383333,25.01194444,嚴禁投入家用垃圾，違者重罰新台幣6000元
大安區,基隆路,4段148號,121.5380556,25.01222222,嚴禁投入家用垃圾，違者重罰新台幣6000元
大安區,基隆路,4段43號,121.5402778,25.01361111,嚴禁投入家用垃圾，違者重罰新台幣6000元
大安區,基隆路,4段43號,121.5425,25.01527778,嚴禁投入家用垃圾，違者重罰新台幣6000元
大安區,基隆路,3段雙號,121.5447222,25.01777778,嚴禁投入家用垃圾，違者重罰新台幣6000元
大安區,基隆路,3段85號,121.5447222,25.0175,嚴禁投入家用垃圾，違者重罰新台幣6000元
大安區,復興南路,1段92號旁,121.5438889,25.04305556,嚴禁投入家用垃圾，違者重罰新台幣6000元
大安區,復興南路,1段156號,121.5433333,25.04194444,嚴禁投入家用垃圾，違者重罰新台幣6000元
大安區,復興南路,1段180號前,121.5433333,25.04083333,嚴禁投入家用垃圾，違者重罰新台幣6000元
大安區,復興南路,1段200號,121.5436111,25.03972222,嚴禁投入家用垃圾，違者重罰新台幣6000元
大安區,復興南路,1段204號,121.5438889,25.03972222,嚴禁投入家用垃圾，違者重罰新台幣6000元
大安區,復興南路,1段318號,121.5436111,25.03694444,嚴禁投入家用垃圾，違者重罰新台幣6000元
大安區,復興南路,1段346號,121.5436111,25.03611111,嚴禁投入家用垃圾，違者重罰新台幣6000元
大安區,復興南路,1段273號公車站牌,121.5436111,25.03583333,嚴禁投入家用垃圾，違者重罰新台幣6000元
大安區,復興南路,1段305號(道慈大樓),121.5436111,25.03305556,嚴禁投入家用垃圾，違者重罰新台幣6000元
大安區,復興南路,2段45號,121.5433333,25.03138889,嚴禁投入家用垃圾，違者重罰新台幣6000元
大安區,復興南路,2段106號對面,121.5436111,25.02944444,嚴禁投入家用垃圾，違者重罰新台幣6000元
大安區,復興南路,2段133號,121.5436111,25.02888889,嚴禁投入家用垃圾，違者重罰新台幣6000元
大安區,復興南路,2段52號(大安高工公車站),121.5433333,25.0325,嚴禁投入家用垃圾，違者重罰新台幣6000元
大安區,復興南路,2段52號(78巷口),121.5436111,25.03138889,嚴禁投入家用垃圾，違者重罰新台幣6000元
大安區,復興南路,2段92號(復興消防分隊),121.5433333,25.03,嚴禁投入家用垃圾，違者重罰新台幣6000元
大安區,復興南路,2段235號對面,121.5430556,25.02638889,嚴禁投入家用垃圾，違者重罰新台幣6000元
大安區,復興南路,2段385號,121.5436111,25.02222222,嚴禁投入家用垃圾，違者重罰新台幣6000元
大安區,復興南路,2段183號,121.5436111,25.02694444,嚴禁投入家用垃圾，違者重罰新台幣6000元
大安區,復興南路,2段338號,121.5436111,25.02305556,嚴禁投入家用垃圾，違者重罰新台幣6000元
大安區,復興南路,2段280號,121.5433333,25.02444444,嚴禁投入家用垃圾，違者重罰新台幣6000元
大安區,敦化南路,1段177巷口,121.5597222,25.04944444,嚴禁投入家用垃圾，違者重罰新台幣6000元
大安區,敦化南路,1段179號,121.5597222,25.04916667,嚴禁投入家用垃圾，違者重罰新台幣6000元
大安區,敦化南路,1段193號,121.5608333,25.04777778,嚴禁投入家用垃圾，違者重罰新台幣6000元
大安區,敦化南路,1段223號,121.5591667,25.04555556,嚴禁投入家用垃圾，違者重罰新台幣6000元
大安區,敦化南路,1段245號,121.5586111,25.04444444,嚴禁投入家用垃圾，違者重罰新台幣6000元
大安區,敦化南路,1段188號,121.56,25.04777778,嚴禁投入家用垃圾，違者重罰新台幣6000元
大安區,敦化南路,1段200號,121.5588889,25.04805556,嚴禁投入家用垃圾，違者重罰新台幣6000元
大安區,敦化南路,1段200號(站),121.5588889,25.04777778,嚴禁投入家用垃圾，違者重罰新台幣6000元
大安區,敦化南路,1段226號,121.5583333,25.04583333,嚴禁投入家用垃圾，違者重罰新台幣6000元
大安區,敦化南路,1段262號(站),121.5588889,25.04277778,嚴禁投入家用垃圾，違者重罰新台幣6000元
大安區,敦化南路,1段262號右,121.5588889,25.04388889,嚴禁投入家用垃圾，違者重罰新台幣6000元
大安區,敦化南路,2段283號,121.5483333,25.025,嚴禁投入家用垃圾，違者重罰新台幣6000元
大安區,敦化南路,1段311號,121.5655556,25.04666667,嚴禁投入家用垃圾，違者重罰新台幣6000元
大安區,敦化南路,1段337號前,121.5488889,25.03333333,嚴禁投入家用垃圾，違者重罰新台幣6000元
大安區,敦化南路,1段281號前,121.5488889,25.03583333,嚴禁投入家用垃圾，違者重罰新台幣6000元
大安區,敦化南路,2段成功國宅站牌,121.5486111,25.02777778,嚴禁投入家用垃圾，違者重罰新台幣6000元
大安區,敦化南路,2段81巷口,121.5488889,25.02972222,嚴禁投入家用垃圾，違者重罰新台幣6000元
大安區,敦化南路,2段29號,121.5486111,25.03138889,嚴禁投入家用垃圾，違者重罰新台幣6000元
大安區,敦化南路,1段259號,121.5488889,25.03611111,嚴禁投入家用垃圾，違者重罰新台幣6000元
大安區,敦化南路,1段294號,121.5486111,25.03611111,嚴禁投入家用垃圾，違者重罰新台幣6000元
大安區,敦化南路,1段324號,121.5486111,25.03527778,嚴禁投入家用垃圾，違者重罰新台幣6000元
大安區,敦化南路,1段376號對面公車站,121.5488889,25.03361111,嚴禁投入家用垃圾，違者重罰新台幣6000元
大安區,敦化南路,2段76號(成功國宅站牌),121.5497222,25.02888889,嚴禁投入家用垃圾，違者重罰新台幣6000元
大安區,敦化南路,2段92號(台灣企銀),121.5486111,25.02833333,嚴禁投入家用垃圾，違者重罰新台幣6000元
大安區,敦化南路,2段120號,121.5486111,25.02666667,嚴禁投入家用垃圾，違者重罰新台幣6000元
大安區,敦化南路,2段174號,121.5486111,25.02388889,嚴禁投入家用垃圾，違者重罰新台幣6000元
大安區,敦化南路,2段196號,121.5483333,25.02361111,嚴禁投入家用垃圾，違者重罰新台幣6000元
大安區,敦化南路,2段206號-北,121.5483333,25.02277778,嚴禁投入家用垃圾，違者重罰新台幣6000元
大安區,敦化南路,2段234號,121.5483333,25.02138889,嚴禁投入家用垃圾，違者重罰新台幣6000元
大安區,敦化南路,2段319號,121.5488889,25.02305556,嚴禁投入家用垃圾，違者重罰新台幣6000元
大安區,敦化南路,2段293巷口,121.5488889,25.02361111,嚴禁投入家用垃圾，違者重罰新台幣6000元
大安區,敦化南路,2段293巷口-北,121.5488889,25.02388889,嚴禁投入家用垃圾，違者重罰新台幣6000元
大安區,愛國東路,35-1號,121.5325,25.04194444,嚴禁投入家用垃圾，違者重罰新台幣6000元
大安區,愛國東路,35號,121.5322222,25.04194444,嚴禁投入家用垃圾，違者重罰新台幣6000元
大安區,愛國東路,31號,121.5311111,25.04222222,嚴禁投入家用垃圾，違者重罰新台幣6000元
大安區,愛國東路,244號,121.5313889,25.04194444,嚴禁投入家用垃圾，違者重罰新台幣6000元
大安區,愛國東路,246號,121.5322222,25.04194444,嚴禁投入家用垃圾，違者重罰新台幣6000元
大安區,新生北路,1段7號前公車候車亭,121.5327778,25.045,嚴禁投入家用垃圾，違者重罰新台幣6000元
大安區,新生南路,1段3號左側(北科大),121.5330556,25.04333333,嚴禁投入家用垃圾，違者重罰新台幣6000元
大安區,新生南路,1段3號捷運4號出口,121.5330556,25.0425,嚴禁投入家用垃圾，違者重罰新台幣6000元
大安區,新生南路,1段85號前公車候車亭,121.5333333,25.04194444,嚴禁投入家用垃圾，違者重罰新台幣6000元
大安區,新生南路,1段99號前,121.5327778,25.04166667,嚴禁投入家用垃圾，違者重罰新台幣6000元
大安區,新生南路,1段131號前公車候車亭,121.5330556,25.03805556,嚴禁投入家用垃圾，違者重罰新台幣6000元
大安區,新生南路,2段2號,121.5430556,25.03333333,嚴禁投入家用垃圾，違者重罰新台幣6000元
大安區,新生南路,2段32號,121.5441667,25.04055556,嚴禁投入家用垃圾，違者重罰新台幣6000元
大安區,新生南路,2段32號,121.5441667,25.04055556,嚴禁投入家用垃圾，違者重罰新台幣6000元
大安區,新生南路,2段32號(公車專用道),121.5333333,25.04,嚴禁投入家用垃圾，違者重罰新台幣6000元
大安區,新生南路,2段36號1,121.5336111,25.03916667,嚴禁投入家用垃圾，違者重罰新台幣6000元
大安區,新生南路,2段36號2,121.5341667,25.03805556,嚴禁投入家用垃圾，違者重罰新台幣6000元
大安區,新生南路,2段36號3,121.5341667,25.03805556,嚴禁投入家用垃圾，違者重罰新台幣6000元
大安區,新生南路,2段60號,121.5347222,25.03638889,嚴禁投入家用垃圾，違者重罰新台幣6000元
大安區,新生南路,2段72號,121.5352778,25.035,嚴禁投入家用垃圾，違者重罰新台幣6000元
大安區,新生南路,2段86號(公車專用道),121.5355556,25.03277778,嚴禁投入家用垃圾，違者重罰新台幣6000元
大安區,新生南路,2段(信義路口大安森林公園旁),121.5330556,25.03277778,嚴禁投入家用垃圾，違者重罰新台幣6000元
大安區,新生南路,2段(信義路口大安森林公園旁),121.5330556,25.03277778,嚴禁投入家用垃圾，違者重罰新台幣6000元
大安區,新生南路,2段(信義路口公車道),121.5327778,25.03333333,嚴禁投入家用垃圾，違者重罰新台幣6000元
大安區,新生南路,2段(金華街口站牌),121.5338889,25.03055556,嚴禁投入家用垃圾，違者重罰新台幣6000元
大安區,羅斯福路,2段67號(公車專用道),121.5333333,25.02638889,嚴禁投入家用垃圾，違者重罰新台幣6000元
大安區,羅斯福路,2段81之1號,121.5280556,25.03194444,嚴禁投入家用垃圾，違者重罰新台幣6000元
大安區,羅斯福路,2段87號,121.5286111,25.03111111,嚴禁投入家用垃圾，違者重罰新台幣6000元
大安區,羅斯福路,3段15號(公車專用道),121.5302778,25.02861111,嚴禁投入家用垃圾，違者重罰新台幣6000元
大安區,羅斯福路,3段19號(公車專用道),121.5302778,25.02833333,嚴禁投入家用垃圾，違者重罰新台幣6000元
大安區,羅斯福路,3段109號(公車專用道),121.5302778,25.02861111,嚴禁投入家用垃圾，違者重罰新台幣6000元
大安區,羅斯福路,3段125號,121.5302778,25.02833333,嚴禁投入家用垃圾，違者重罰新台幣6000元
大安區,羅斯福路,3段165號,121.5330556,25.02583333,嚴禁投入家用垃圾，違者重罰新台幣6000元
大安區,羅斯福路,4段107號,121.5369444,25.01194444,嚴禁投入家用垃圾，違者重罰新台幣6000元
大安區,羅斯福路,4段85號,121.5363889,25.01277778,嚴禁投入家用垃圾，違者重罰新台幣6000元
大安區,羅斯福路,4段1號,121.5344444,25.01472222,嚴禁投入家用垃圾，違者重罰新台幣6000元
大安區,羅斯福路,3段315號,121.5319444,25.01694444,嚴禁投入家用垃圾，違者重罰新台幣6000元
大安區,羅斯福路,4段1號,121.5338889,25.01527778,嚴禁投入家用垃圾，違者重罰新台幣6000元
大安區,羅斯福路,4段21號,121.535,25.01444444,嚴禁投入家用垃圾，違者重罰新台幣6000元
大安區,羅斯福路,3段273號,121.5305556,25.01833333,嚴禁投入家用垃圾，違者重罰新台幣6000元
大安區,羅斯福路,3段197號,121.5280556,25.02083333,嚴禁投入家用垃圾，違者重罰新台幣6000元
大安區,羅斯福路,3段275號,121.5308333,25.0175,嚴禁投入家用垃圾，違者重罰新台幣6000元
大安區,羅斯福路,4段21號,121.5358333,25.01361111,嚴禁投入家用垃圾，違者重罰新台幣6000元
大安區,羅斯福路,3段197號,121.5280556,25.02111111,嚴禁投入家用垃圾，違者重罰新台幣6000元
大安區,羅斯福路,4段21號,121.535,25.01416667,嚴禁投入家用垃圾，違者重罰新台幣6000元
中山區,北安路,643號前,121.5491667,25.08388889,嚴禁投入家用垃圾，違者重罰新台幣6000元
中山區,北安路,524號對面,121.5469444,25.08,嚴禁投入家用垃圾，違者重罰新台幣6000元
中山區,北安路,522號對面,121.5463889,25.08,嚴禁投入家用垃圾，違者重罰新台幣6000元
中山區,北安路,85號(碧海山莊前),121.5302778,25.07805556,嚴禁投入家用垃圾，違者重罰新台幣6000元
中山區,北安路,47號(美僑協會),121.5286111,25.07777778,嚴禁投入家用垃圾，違者重罰新台幣6000元
中山區,北安路,85號對面,121.53,25.07805556,嚴禁投入家用垃圾，違者重罰新台幣6000元
中山區,北安路,387號對面(空軍司令部),121.5402778,25.07944444,嚴禁投入家用垃圾，違者重罰新台幣6000元
中山區,北安路,420號大直高中,121.5427778,25.07944444,嚴禁投入家用垃圾，違者重罰新台幣6000元
中山區,北安路,劍南路捷運站,121.555,25.08472222,嚴禁投入家用垃圾，違者重罰新台幣6000元
中山區,內湖路,一段1巷2號對面,121.5583333,25.08444444,嚴禁投入家用垃圾，違者重罰新台幣6000元
中山區,北安路,807號前(國防示範樂隊),121.555,25.085,嚴禁投入家用垃圾，違者重罰新台幣6000元
中山區,敬業三路,劍南捷運站(3號出口前),121.5561111,25.08416667,嚴禁投入家用垃圾，違者重罰新台幣6000元
中山區,劍南路,067號路燈桿觀景亭旁,121.5569444,25.08777778,嚴禁投入家用垃圾，違者重罰新台幣6000元
中山區,樂群三路,美麗華對面（家樂福旁之停車場側）,121.5566667,25.08277778,嚴禁投入家用垃圾，違者重罰新台幣6000元
中山區,敬業四路,美麗華對面（停車場側）,121.5586111,25.08305556,嚴禁投入家用垃圾，違者重罰新台幣6000元
中山區,敬業三路,121號愛買前,121.5561111,25.08166667,嚴禁投入家用垃圾，違者重罰新台幣6000元
中山區,新生北路,二段28巷口,121.5275,25.05444444,嚴禁投入家用垃圾，違者重罰新台幣6000元
中山區,新生北路,二段林森公園站牌前,121.5441667,25.05444444,嚴禁投入家用垃圾，違者重罰新台幣6000元
中山區,南京東路,一段86號(對面),121.5266667,25.05361111,嚴禁投入家用垃圾，違者重罰新台幣6000元
中山區,南京東路,一段公車專用道(單號邊),121.5255556,25.05222222,嚴禁投入家用垃圾，違者重罰新台幣6000元
中山區,林森北路,14號公園西側,121.5269444,25.055,嚴禁投入家用垃圾，違者重罰新台幣6000元
中山區,林森北路,欣欣百貨,121.5272222,25.05416667,嚴禁投入家用垃圾，違者重罰新台幣6000元
中山區,林森北路,15號公園東側,121.5272222,25.05444444,嚴禁投入家用垃圾，違者重罰新台幣6000元
中山區,南京東路,一段林森北路口,121.5261111,25.05277778,嚴禁投入家用垃圾，違者重罰新台幣6000元
中山區,南京東路,一段公車專用道(雙號邊),121.5261111,25.05277778,嚴禁投入家用垃圾，違者重罰新台幣6000元
中山區,南京東路,一段31巷口,121.5255556,25.05222222,嚴禁投入家用垃圾，違者重罰新台幣6000元
中山區,南京東路,一段1號,121.5255556,25.0525,嚴禁投入家用垃圾，違者重罰新台幣6000元
中山區,中山北路,二段27號,121.5216667,25.05222222,嚴禁投入家用垃圾，違者重罰新台幣6000元
中山區,中山北路,二段45號,121.5216667,25.05333333,嚴禁投入家用垃圾，違者重罰新台幣6000元
中山區,中山北路,二段長春路口,121.5225,25.05555556,嚴禁投入家用垃圾，違者重罰新台幣6000元
中山區,中山北路,二段65號,121.5222222,25.05694444,嚴禁投入家用垃圾，違者重罰新台幣6000元
中山區,中山北路,二段48號,121.5225,25.05638889,嚴禁投入家用垃圾，違者重罰新台幣6000元
中山區,中山北路,二段34號,121.5225,25.05444444,嚴禁投入家用垃圾，違者重罰新台幣6000元
中山區,中山北路,二段18號,121.5225,25.05388889,嚴禁投入家用垃圾，違者重罰新台幣6000元
中山區,中山北路,一段152號,121.5227778,25.0525,嚴禁投入家用垃圾，違者重罰新台幣6000元
中山區,中山北路,一段130號,121.5222222,25.05194444,嚴禁投入家用垃圾，違者重罰新台幣6000元
中山區,南京東路,一段6號,121.5225,25.05388889,嚴禁投入家用垃圾，違者重罰新台幣6000元
中山區,南京東路,一段16號,121.5227778,25.0525,嚴禁投入家用垃圾，違者重罰新台幣6000元
中山區,長安東路,一段29號,121.5277778,25.05277778,嚴禁投入家用垃圾，違者重罰新台幣6000元
中山區,林森北路,62號,121.5236111,25.0475,嚴禁投入家用垃圾，違者重罰新台幣6000元
中山區,林森北路,40號,121.5236111,25.04805556,嚴禁投入家用垃圾，違者重罰新台幣6000元
中山區,林森北路,37巷口,121.525,25.04805556,嚴禁投入家用垃圾，違者重罰新台幣6000元
中山區,新生北路,一段南京東路口,121.5269444,25.05277778,嚴禁投入家用垃圾，違者重罰新台幣6000元
中山區,新生北路,一段松江路口,121.5319444,25.04611111,嚴禁投入家用垃圾，違者重罰新台幣6000元
中山區,林森北路,380號,121.5222222,25.05694444,嚴禁投入家用垃圾，違者重罰新台幣6000元
中山區,林森北路,373號前,121.5255556,25.05805556,嚴禁投入家用垃圾，違者重罰新台幣6000元
中山區,中山北路,二段79號前,121.5222222,25.0575,嚴禁投入家用垃圾，違者重罰新台幣6000元
中山區,中山北路,二段111號前,121.5225,25.06083333,嚴禁投入家用垃圾，違者重罰新台幣6000元
中山區,中山北路,二段52號前,121.5222222,25.05694444,嚴禁投入家用垃圾，違者重罰新台幣6000元
中山區,中山北路,一段114之1號前,121.5213889,25.05111111,嚴禁投入家用垃圾，違者重罰新台幣6000元
中山區,中山北路,一段108號前,121.5211111,25.05055556,嚴禁投入家用垃圾，違者重罰新台幣6000元
中山區,中山北路,一段58號,121.5205556,25.04833333,嚴禁投入家用垃圾，違者重罰新台幣6000元
中山區,中山北路,一段41號前,121.5233333,25.04805556,嚴禁投入家用垃圾，違者重罰新台幣6000元
中山區,中山北路,一段57之3號,121.5211111,25.05055556,嚴禁投入家用垃圾，違者重罰新台幣6000元
中山區,松江路,550號前,121.5327778,25.06944444,嚴禁投入家用垃圾，違者重罰新台幣6000元
中山區,松江路,530號前,121.5319444,25.06944444,嚴禁投入家用垃圾，違者重罰新台幣6000元
中山區,松江路,426號前,121.5338889,25.06388889,嚴禁投入家用垃圾，違者重罰新台幣6000元
中山區,松江路,384號前,121.5338889,25.06361111,嚴禁投入家用垃圾，違者重罰新台幣6000元
中山區,松江路,372巷口,121.5338889,25.06305556,嚴禁投入家用垃圾，違者重罰新台幣6000元
中山區,民權東路,二段107號東側地下道入口,121.5338889,25.06305556,嚴禁投入家用垃圾，違者重罰新台幣6000元
中山區,民權東路,二段與松江路交叉口(西北側),121.5341667,25.0625,嚴禁投入家用垃圾，違者重罰新台幣6000元
中山區,民權東路,二段107號前(西向公車道)1,121.5330556,25.06638889,嚴禁投入家用垃圾，違者重罰新台幣6000元
中山區,民權東路,二段107號前(西向公車道)2,121.5330556,25.06638889,嚴禁投入家用垃圾，違者重罰新台幣6000元
中山區,民權東路,二段73號前,121.5327778,25.0625,嚴禁投入家用垃圾，違者重罰新台幣6000元
中山區,民權東路,二段21號前,121.5322222,25.06277778,嚴禁投入家用垃圾，違者重罰新台幣6000元
中山區,民權東路,二段21號前(西向公車道)1,121.5294444,25.06305556,嚴禁投入家用垃圾，違者重罰新台幣6000元
中山區,民權東路,二段21號前(西向公車道)2,121.5294444,25.06305556,嚴禁投入家用垃圾，違者重罰新台幣6000元
中山區,民權東路,二段17號,121.5294444,25.06305556,嚴禁投入家用垃圾，違者重罰新台幣6000元
中山區,民權東路,二段1號前,121.5294444,25.06277778,嚴禁投入家用垃圾，違者重罰新台幣6000元
中山區,民權東路,二段46號前(東向公車道)1,121.5297222,25.06222222,嚴禁投入家用垃圾，違者重罰新台幣6000元
中山區,民權東路,二段46號前(東向公車道)2,121.5297222,25.06222222,嚴禁投入家用垃圾，違者重罰新台幣6000元
中山區,松江路,366號前,121.5333333,25.06194444,嚴禁投入家用垃圾，違者重罰新台幣6000元
中山區,松江路,350號前,121.5333333,25.06194444,嚴禁投入家用垃圾，違者重罰新台幣6000元
中山區,松江路,錦洲街(公車道北往南)1,121.5333333,25.05972222,嚴禁投入家用垃圾，違者重罰新台幣6000元
中山區,松江路,錦洲街(公車道北往南)2,121.5333333,25.05972222,嚴禁投入家用垃圾，違者重罰新台幣6000元
中山區,松江路,民權東路二段(公車道南往北)1,121.5319444,25.06388889,嚴禁投入家用垃圾，違者重罰新台幣6000元
中山區,松江路,民權東路二段(公車道南往北)2,121.5319444,25.06388889,嚴禁投入家用垃圾，違者重罰新台幣6000元
中山區,民權東路,二段204號前,121.5372222,25.06138889,嚴禁投入家用垃圾，違者重罰新台幣6000元
中山區,民權東路,二段建國北路口(東向西公車道)1,121.5372222,25.06138889,嚴禁投入家用垃圾，違者重罰新台幣6000元
中山區,民權東路,二段建國北路口(東向西公車道)2,121.5372222,25.06138889,嚴禁投入家用垃圾，違者重罰新台幣6000元
中山區,建國北路,二段216號前,121.5366667,25.06055556,嚴禁投入家用垃圾，違者重罰新台幣6000元
中山區,建國北路,二段188號前,121.5366667,25.05972222,嚴禁投入家用垃圾，違者重罰新台幣6000元
中山區,民生東路,二段163號前,121.5366667,25.05777778,嚴禁投入家用垃圾，違者重罰新台幣6000元
中山區,民生東路,二段149號東側,121.5352778,25.05805556,嚴禁投入家用垃圾，違者重罰新台幣6000元
中山區,民生東路,二段149號西側,121.5352778,25.05805556,嚴禁投入家用垃圾，違者重罰新台幣6000元
中山區,民生東路,二段143號,121.5344444,25.05777778,嚴禁投入家用垃圾，違者重罰新台幣6000元
中山區,民生東路,二段141號,121.5333333,25.05777778,嚴禁投入家用垃圾，違者重罰新台幣6000元
中山區,松江路,220號前(中國信託),121.5327778,25.05805556,嚴禁投入家用垃圾，違者重罰新台幣6000元
中山區,民權東路,三段4號,121.5383333,25.06222222,嚴禁投入家用垃圾，違者重罰新台幣6000元
中山區,民權東路,三段6號,121.5388889,25.0625,嚴禁投入家用垃圾，違者重罰新台幣6000元
中山區,民權東路,三段與龍江路口(西向東公車道),121.5402778,25.06222222,嚴禁投入家用垃圾，違者重罰新台幣6000元
中山區,民權東路,三段與龍江路交叉口(西往東),121.5402778,25.06222222,嚴禁投入家用垃圾，違者重罰新台幣6000元
中山區,民權東路,三段與龍江路交叉口(南側),121.5411111,25.06222222,嚴禁投入家用垃圾，違者重罰新台幣6000元
中山區,民權東路,三段46號,121.5416667,25.06222222,嚴禁投入家用垃圾，違者重罰新台幣6000元
中山區,民權東路,三段62號,121.5425,25.06222222,嚴禁投入家用垃圾，違者重罰新台幣6000元
中山區,民權東路,三段與復興北路口(西向東公車道一),121.5438889,25.06222222,嚴禁投入家用垃圾，違者重罰新台幣6000元
中山區,民權東路,三段與復興北路口(西向東公車道二),121.5438889,25.06222222,嚴禁投入家用垃圾，違者重罰新台幣6000元
中山區,復興北路,400號,121.5441667,25.06194444,嚴禁投入家用垃圾，違者重罰新台幣6000元
中山區,復興北路,386號(一),121.5438889,25.06138889,嚴禁投入家用垃圾，違者重罰新台幣6000元
中山區,復興北路,386號(二),121.5438889,25.06111111,嚴禁投入家用垃圾，違者重罰新台幣6000元
中山區,復興北路,350號前,121.5441667,25.06027778,嚴禁投入家用垃圾，違者重罰新台幣6000元
中山區,民生東路,三段69號,121.5433333,25.05777778,嚴禁投入家用垃圾，違者重罰新台幣6000元
中山區,民生東路,三段65巷口,121.5419444,25.05777778,嚴禁投入家用垃圾，違者重罰新台幣6000元
中山區,民生東路,三段與龍江路,121.5413889,25.05777778,嚴禁投入家用垃圾，違者重罰新台幣6000元
中山區,民生東路,三段15號,121.5402778,25.05777778,嚴禁投入家用垃圾，違者重罰新台幣6000元
中山區,建國北路,二段131號,121.5369444,25.06,嚴禁投入家用垃圾，違者重罰新台幣6000元
中山區,建國北路,二段135號,121.5369444,25.06027778,嚴禁投入家用垃圾，違者重罰新台幣6000元
中山區,建國北路,二段151號,121.5372222,25.06194444,嚴禁投入家用垃圾，違者重罰新台幣6000元
中山區,復興北路,436號,121.5441667,25.06361111,嚴禁投入家用垃圾，違者重罰新台幣6000元
中山區,民權東路,三段71號,121.5438889,25.0625,嚴禁投入家用垃圾，違者重罰新台幣6000元
中山區,民權東路,三段37號,121.5425,25.0625,嚴禁投入家用垃圾，違者重罰新台幣6000元
中山區,民權東路,三段與龍江路口(東向西公車道)(一),121.5411111,25.0625,嚴禁投入家用垃圾，違者重罰新台幣6000元
中山區,民權東路,三段與龍江路口(東向西公車道)(二),121.5411111,25.0625,嚴禁投入家用垃圾，違者重罰新台幣6000元
中山區,民權東路,三段與龍江路口(東向西公車道)(三),121.5411111,25.0625,嚴禁投入家用垃圾，違者重罰新台幣6000元
中山區,民權東路,三段(榮星公園一),121.5408333,25.0625,嚴禁投入家用垃圾，違者重罰新台幣6000元
中山區,民權東路,三段(榮星公園二),121.5402778,25.0625,嚴禁投入家用垃圾，違者重罰新台幣6000元
中山區,民權東路,三段(榮星公園三),121.5397222,25.0625,嚴禁投入家用垃圾，違者重罰新台幣6000元
中山區,民權東路,三段(榮星公園四),121.5383333,25.06222222,嚴禁投入家用垃圾，違者重罰新台幣6000元
中山區,民權東路,三段與建國北路口(東向西公車道)(一),121.5375,25.06222222,嚴禁投入家用垃圾，違者重罰新台幣6000元
中山區,民權東路,三段與建國北路口(東向西公車道)(二),121.5375,25.06222222,嚴禁投入家用垃圾，違者重罰新台幣6000元
中山區,民權東路,三段與建國北路口(東向西公車道)(三),121.5375,25.06222222,嚴禁投入家用垃圾，違者重罰新台幣6000元
中山區,建國北路,三段口東側,121.5372222,25.06277778,嚴禁投入家用垃圾，違者重罰新台幣6000元
中山區,建國北路,三段(西側),121.5366667,25.06305556,嚴禁投入家用垃圾，違者重罰新台幣6000元
中山區,民權東路,二段145號(一) ,121.5363889,25.0625,嚴禁投入家用垃圾，違者重罰新台幣6000元
中山區,民權東路,二段145號(二) ,121.5355556,25.0625,嚴禁投入家用垃圾，違者重罰新台幣6000元
中山區,民權東路,二段145號(三),121.5352778,25.0625,嚴禁投入家用垃圾，違者重罰新台幣6000元
中山區,民權東路,二段與松江路口(東向西公車道)(一),121.5336111,25.0625,嚴禁投入家用垃圾，違者重罰新台幣6000元
中山區,民權東路,二段與松江路口(東向西公車道)(三),121.5336111,25.0625,嚴禁投入家用垃圾，違者重罰新台幣6000元
中山區,松江路,357巷口,121.5333333,25.06333333,嚴禁投入家用垃圾，違者重罰新台幣6000元
中山區,松江路,363號,121.5333333,25.06361111,嚴禁投入家用垃圾，違者重罰新台幣6000元
中山區,松江路,與農安街口,121.5333333,25.06416667,嚴禁投入家用垃圾，違者重罰新台幣6000元
中山區,松江路,379號,121.5333333,25.06527778,嚴禁投入家用垃圾，違者重罰新台幣6000元
中山區,松江路,485號,121.5333333,25.06722222,嚴禁投入家用垃圾，違者重罰新台幣6000元
中山區,建國北路,一段2號(建國橋下迴轉道出口),121.5363889,25.04666667,嚴禁投入家用垃圾，違者重罰新台幣6000元
中山區,松江路,25巷口,121.5330556,25.04722222,嚴禁投入家用垃圾，違者重罰新台幣6000元
中山區,松江路,39號,121.5333333,25.04777778,嚴禁投入家用垃圾，違者重罰新台幣6000元
中山區,松江路,51號,121.5333333,25.04805556,嚴禁投入家用垃圾，違者重罰新台幣6000元
中山區,松江路,51號(對面公車專用道上),121.5333333,25.04777778,嚴禁投入家用垃圾，違者重罰新台幣6000元
中山區,松江路,65號,121.5322222,25.04972222,嚴禁投入家用垃圾，違者重罰新台幣6000元
中山區,松江路,67之2號,121.5325,25.05,嚴禁投入家用垃圾，違者重罰新台幣6000元
中山區,松江路,77巷口,121.5325,25.05,嚴禁投入家用垃圾，違者重罰新台幣6000元
中山區,松江路,87號,121.5333333,25.05027778,嚴禁投入家用垃圾，違者重罰新台幣6000元
中山區,松江路,97巷口(對面公車專用道),121.5333333,25.05194444,嚴禁投入家用垃圾，違者重罰新台幣6000元
中山區,松江路,108巷口,121.5327778,25.05138889,嚴禁投入家用垃圾，違者重罰新台幣6000元
中山區,松江路,100巷口,121.5330556,25.05111111,嚴禁投入家用垃圾，違者重罰新台幣6000元
中山區,松江路,84巷(松江詩園前),121.5333333,25.05027778,嚴禁投入家用垃圾，違者重罰新台幣6000元
中山區,松江路,76號,121.5333333,25.05027778,嚴禁投入家用垃圾，違者重罰新台幣6000元
中山區,松江路,68號,121.5336111,25.05027778,嚴禁投入家用垃圾，違者重罰新台幣6000元
中山區,松江路,54號前,121.5333333,25.04861111,嚴禁投入家用垃圾，違者重罰新台幣6000元
中山區,松江路,54號(對面公車專用道上),121.5327778,25.04861111,嚴禁投入家用垃圾，違者重罰新台幣6000元
中山區,松江路,50號,121.5330556,25.04833333,嚴禁投入家用垃圾，違者重罰新台幣6000元
中山區,松江路,32號,121.5333333,25.04722222,嚴禁投入家用垃圾，違者重罰新台幣6000元
中山區,松江路,24號,121.5327778,25.04694444,嚴禁投入家用垃圾，違者重罰新台幣6000元
中山區,松江路,8之1號,121.5330556,25.04666667,嚴禁投入家用垃圾，違者重罰新台幣6000元
中山區,一江街,13號,121.5316667,25.05111111,嚴禁投入家用垃圾，違者重罰新台幣6000元
中山區,吉林路,14巷(吉林公園),121.5288889,25.05055556,嚴禁投入家用垃圾，違者重罰新台幣6000元
中山區,復興北路,40號,121.5441667,25.04944444,嚴禁投入家用垃圾，違者重罰新台幣6000元
中山區,復興南路,一段2號,121.5438889,25.04694444,嚴禁投入家用垃圾，違者重罰新台幣6000元
中山區,市民大道,三段209號,121.5433333,25.045,嚴禁投入家用垃圾，違者重罰新台幣6000元
中山區,建國北路,一段(中山女中公車站牌右側),121.5369444,25.04888889,嚴禁投入家用垃圾，違者重罰新台幣6000元
中山區,建國北路,一段156號,121.5366667,25.05166667,嚴禁投入家用垃圾，違者重罰新台幣6000元
中山區,建國北路,一段146號,121.5363889,25.05111111,嚴禁投入家用垃圾，違者重罰新台幣6000元
中山區,建國北路,一段136號,121.5366667,25.05083333,嚴禁投入家用垃圾，違者重罰新台幣6000元
中山區,建國北路,一段90號,121.5366667,25.05027778,嚴禁投入家用垃圾，違者重罰新台幣6000元
中山區,建國北路,一段52號,121.5369444,25.04805556,嚴禁投入家用垃圾，違者重罰新台幣6000元
中山區,八德路,二段260號,121.5408333,25.04638889,嚴禁投入家用垃圾，違者重罰新台幣6000元
中山區,長安東路,二段189之4號,121.5430556,25.04833333,嚴禁投入家用垃圾，違者重罰新台幣6000元
中山區,長安東路,二段146號(中山女高人行道上)對面,121.5380556,25.04861111,嚴禁投入家用垃圾，違者重罰新台幣6000元
中山區,長安東路,二段148號(中山女高人行道上)對面,121.5377778,25.04861111,嚴禁投入家用垃圾，違者重罰新台幣6000元
中山區,長安東路,二段建國橋下,121.5366667,25.04888889,嚴禁投入家用垃圾，違者重罰新台幣6000元
中山區,長安東路,二段131之3號,121.5361111,25.04833333,嚴禁投入家用垃圾，違者重罰新台幣6000元
中山區,長安東路,二段與伊通街東北角,121.5347222,25.04861111,嚴禁投入家用垃圾，違者重罰新台幣6000元
中山區,長安東路,二段與伊通街西北角,121.5344444,25.04861111,嚴禁投入家用垃圾，違者重罰新台幣6000元
中山區,長安東路,二段63號,121.5336111,25.04833333,嚴禁投入家用垃圾，違者重罰新台幣6000元
中山區,長安東路,二段118號,121.5361111,25.04833333,嚴禁投入家用垃圾，違者重罰新台幣6000元
中山區,長安東路,二段148號,121.5377778,25.04833333,嚴禁投入家用垃圾，違者重罰新台幣6000元
中山區,長安東路,二段174號,121.54,25.04861111,嚴禁投入家用垃圾，違者重罰新台幣6000元
中山區,南京東路,吉林路路口（對面公車專用道上）,121.5302778,25.05222222,嚴禁投入家用垃圾，違者重罰新台幣6000元
中山區,南京東路,松江路路口 (對面公車專用道上),121.5305556,25.05194444,嚴禁投入家用垃圾，違者重罰新台幣6000元
中山區,南京東路,二段178號,121.5352778,25.05194444,嚴禁投入家用垃圾，違者重罰新台幣6000元
中山區,南京東路,建國北路口 (對面公車專用道上),121.5366667,25.05222222,嚴禁投入家用垃圾，違者重罰新台幣6000元
中山區,南京東路,龍江路口 (對面公車專用道上),121.5402778,25.05166667,嚴禁投入家用垃圾，違者重罰新台幣6000元
中山區,南京東路,復興北路口 (對面公車專用道上),121.5438889,25.05194444,嚴禁投入家用垃圾，違者重罰新台幣6000元
中山區,南京東路,二段28號,121.5288889,25.05194444,嚴禁投入家用垃圾，違者重罰新台幣6000元
中山區,南京東路,二段78號,121.5305556,25.05194444,嚴禁投入家用垃圾，違者重罰新台幣6000元
中山區,南京東路,三段34號,121.5375,25.05083333,嚴禁投入家用垃圾，違者重罰新台幣6000元
中山區,南京東路,三段130號,121.5408333,25.05194444,嚴禁投入家用垃圾，違者重罰新台幣6000元
中山區,南京東路,遼寧街口,121.5416667,25.05138889,嚴禁投入家用垃圾，違者重罰新台幣6000元
中山區,南京東路,三段224號,121.5436111,25.05138889,嚴禁投入家用垃圾，違者重罰新台幣6000元
中山區,民生東路,二段164巷口,121.5333333,25.05861111,嚴禁投入家用垃圾，違者重罰新台幣6000元
中山區,民生東路,二段164巷(松江路口),121.5169444,25.05861111,嚴禁投入家用垃圾，違者重罰新台幣6000元
中山區,民生東路,二段170號,121.535,25.05694444,嚴禁投入家用垃圾，違者重罰新台幣6000元
中山區,民生東路,二段172號,121.535,25.0575,嚴禁投入家用垃圾，違者重罰新台幣6000元
中山區,民生東路,二段與建國北路口,121.535,25.05805556,嚴禁投入家用垃圾，違者重罰新台幣6000元
中山區,松江路,129號(四平街口),121.5327778,25.05388889,嚴禁投入家用垃圾，違者重罰新台幣6000元
中山區,松江路,133巷口,121.5333333,25.05472222,嚴禁投入家用垃圾，違者重罰新台幣6000元
中山區,松江路,147號,121.5330556,25.05527778,嚴禁投入家用垃圾，違者重罰新台幣6000元
中山區,松江路,183號,121.5333333,25.05527778,嚴禁投入家用垃圾，違者重罰新台幣6000元
中山區,松江路,199號,121.5336111,25.05666667,嚴禁投入家用垃圾，違者重罰新台幣6000元
中山區,松江路,209號,121.5322222,25.05638889,嚴禁投入家用垃圾，違者重罰新台幣6000元
中山區,松江路,206號對面公車專用道,121.5330556,25.0575,嚴禁投入家用垃圾，違者重罰新台幣6000元
中山區,松江路,206號對面公車專用道,121.5330556,25.0575,嚴禁投入家用垃圾，違者重罰新台幣6000元
中山區,松江路,206號,121.5336111,25.05722222,嚴禁投入家用垃圾，違者重罰新台幣6000元
中山區,松江路,190號,121.5338889,25.05611111,嚴禁投入家用垃圾，違者重罰新台幣6000元
中山區,松江路,182號,121.5166667,25.05583333,嚴禁投入家用垃圾，違者重罰新台幣6000元
中山區,松江路,168號,121.5333333,25.05583333,嚴禁投入家用垃圾，違者重罰新台幣6000元
中山區,松江路,158號,121.5330556,25.055,嚴禁投入家用垃圾，違者重罰新台幣6000元
中山區,松江路,156號,121.5330556,25.05472222,嚴禁投入家用垃圾，違者重罰新台幣6000元
中山區,松江路,156之1號(長春路公車專用道),121.5330556,25.05444444,嚴禁投入家用垃圾，違者重罰新台幣6000元
中山區,松江路,長春路口公車專用道,121.5341667,25.05388889,嚴禁投入家用垃圾，違者重罰新台幣6000元
中山區,松江路,長春路口公車專用道,121.535,25.05388889,嚴禁投入家用垃圾，違者重罰新台幣6000元
中山區,建國北路,二段1號,121.5363889,25.05138889,嚴禁投入家用垃圾，違者重罰新台幣6000元
中山區,建國北路,二段33號,121.5369444,25.05361111,嚴禁投入家用垃圾，違者重罰新台幣6000元
中山區,建國北路,二段69號,121.535,25.05388889,嚴禁投入家用垃圾，違者重罰新台幣6000元
中山區,建國北路,二段72號,121.5363889,25.05722222,嚴禁投入家用垃圾，違者重罰新台幣6000元
中山區,建國北路,二段88號,121.5366667,25.05638889,嚴禁投入家用垃圾，違者重罰新台幣6000元
中山區,長春路,123號(吉林路口),121.5302778,25.055,嚴禁投入家用垃圾，違者重罰新台幣6000元
中山區,一江街,長春路口,121.5316667,25.055,嚴禁投入家用垃圾，違者重罰新台幣6000元
中山區,長春路,165號,121.5347222,25.05472222,嚴禁投入家用垃圾，違者重罰新台幣6000元
中山區,長春路,165之1號,121.5352778,25.05444444,嚴禁投入家用垃圾，違者重罰新台幣6000元
中山區,長春路,188號對面,121.5347222,25.05472222,嚴禁投入家用垃圾，違者重罰新台幣6000元
中山區,松江路,158號(台企銀行長春路口),121.5336111,25.05444444,嚴禁投入家用垃圾，違者重罰新台幣6000元
中山區,松江路,長春路口(六福客棧),121.5333333,25.05472222,嚴禁投入家用垃圾，違者重罰新台幣6000元
中山區,松江路,萬泰銀行長春路口,121.5341667,25.05472222,嚴禁投入家用垃圾，違者重罰新台幣6000元
中山區,建國北路,二段與長春路口(建國橋下，西向東橋下),121.5366667,25.05555556,嚴禁投入家用垃圾，違者重罰新台幣6000元
中山區,建國北路,二段與民生東路(建國橋下，西向東橋下),121.5363889,25.05694444,嚴禁投入家用垃圾，違者重罰新台幣6000元
中山區,長春路,346號,121.5402778,25.05416667,嚴禁投入家用垃圾，違者重罰新台幣6000元
中山區,建國北路,二段11巷口,121.5372222,25.05361111,嚴禁投入家用垃圾，違者重罰新台幣6000元
中山區,民生東路,三段8號,121.5377778,25.05722222,嚴禁投入家用垃圾，違者重罰新台幣6000元
中山區,松江路,124巷對面(公車專用道),121.5333333,25.0525,嚴禁投入家用垃圾，違者重罰新台幣6000元
中山區,松江路,124巷對面(公車專用道),121.5330556,25.0525,嚴禁投入家用垃圾，違者重罰新台幣6000元
中山區,長春路,復興北路口,121.5441667,25.05388889,嚴禁投入家用垃圾，違者重罰新台幣6000元
中山區,南京東路,二段63號(公車專用)對面,121.5305556,25.05194444,嚴禁投入家用垃圾，違者重罰新台幣6000元
中山區,南京東路,二段111號(公車專用)對面,121.5333333,25.05194444,嚴禁投入家用垃圾，違者重罰新台幣6000元
中山區,南京東路,三段1號(公車專用)對面,121.5208333,25.05138889,嚴禁投入家用垃圾，違者重罰新台幣6000元
中山區,南京東路,三段131號(公車專用)對面,121.5416667,25.05222222,嚴禁投入家用垃圾，違者重罰新台幣6000元
中山區,南京東路,2段15號,121.5288889,25.05166667,嚴禁投入家用垃圾，違者重罰新台幣6000元
中山區,南京東路,2段65號,121.5319444,25.05194444,嚴禁投入家用垃圾，違者重罰新台幣6000元
中山區,南京東路,2段87號,121.5322222,25.05194444,嚴禁投入家用垃圾，違者重罰新台幣6000元
中山區,南京東路,2段113號,121.5338889,25.05194444,嚴禁投入家用垃圾，違者重罰新台幣6000元
中山區,南京東路,3段29號,121.5388889,25.05138889,嚴禁投入家用垃圾，違者重罰新台幣6000元
中山區,南京東路,3段103號,121.5391667,25.05194444,嚴禁投入家用垃圾，違者重罰新台幣6000元
中山區,南京東路,3段223巷口,121.5444444,25.05111111,嚴禁投入家用垃圾，違者重罰新台幣6000元
中山區,民族東路,1號側(海霸王),121.5236111,25.06833333,嚴禁投入家用垃圾，違者重罰新台幣6000元
中山區,民族西路,(足球場側)東往西中山足球場公車站牌,121.5205556,25.06861111,嚴禁投入家用垃圾，違者重罰新台幣6000元
中山區,玉門街,(足球場側)南往北1號圓山捷運站牌,121.52,25.06944444,嚴禁投入家用垃圾，違者重罰新台幣6000元
中山區,玉門街,(足球場側)南往北1號圓山捷運站牌,121.52,25.06972222,嚴禁投入家用垃圾，違者重罰新台幣6000元
中山區,民權西路,民權西路55號前,121.52,25.06277778,嚴禁投入家用垃圾，違者重罰新台幣6000元
中山區,中山北路,三段(圓山公園側)62號側,121.5238889,25.07222222,嚴禁投入家用垃圾，違者重罰新台幣6000元
中山區,中山北路,三段(圓山公園側)62號側,121.5238889,25.07222222,嚴禁投入家用垃圾，違者重罰新台幣6000元
中山區,中山北路,三段圓山公園大門口,121.5233333,25.07111111,嚴禁投入家用垃圾，違者重罰新台幣6000元
中山區,中山北路,三段與民族西路交叉口海霸王對面,121.5227778,25.06888889,嚴禁投入家用垃圾，違者重罰新台幣6000元
中山區,民權西路,(公車專用道)西往東1號對面,121.5216667,25.06277778,嚴禁投入家用垃圾，違者重罰新台幣6000元
中山區,民生西路,與中山北路二段交叉口馬階醫院側,121.5225,25.05777778,嚴禁投入家用垃圾，違者重罰新台幣6000元
中山區,民族東路,與松江路交叉口新生公園東南角,121.5330556,25.06777778,嚴禁投入家用垃圾，違者重罰新台幣6000元
中山區,林森北路,477號前,121.5258333,25.06111111,嚴禁投入家用垃圾，違者重罰新台幣6000元
中山區,林森北路,524號(公用電話亭旁),121.5255556,25.06305556,嚴禁投入家用垃圾，違者重罰新台幣6000元
中山區,林森北路,(中山國小牆邊陸橋下),121.5255556,25.06305556,嚴禁投入家用垃圾，違者重罰新台幣6000元
中山區,林森北路,(中山國小公車站牌下),121.5255556,25.06361111,嚴禁投入家用垃圾，違者重罰新台幣6000元
中山區,民權東路,一段1號公車道(東往西),121.5227778,25.0625,嚴禁投入家用垃圾，違者重罰新台幣6000元
中山區,民權東路,一段1號公車道(東往西),121.5227778,25.0625,嚴禁投入家用垃圾，違者重罰新台幣6000元
中山區,民族東路,41號遠側(新生公園),121.5311111,25.06833333,嚴禁投入家用垃圾，違者重罰新台幣6000元
中山區,中山北路,三段雙號(美術館公車站牌),121.5230556,25.07,嚴禁投入家用垃圾，違者重罰新台幣6000元
中山區,民權東路,中山國小捷運站1號出口,121.5255556,25.06277778,嚴禁投入家用垃圾，違者重罰新台幣6000元
中山區,民權東路,中山國小捷運站2號出口,121.5255556,25.06277778,嚴禁投入家用垃圾，違者重罰新台幣6000元
中山區,民權東路,中山國小捷運站3號出口,121.5255556,25.06277778,嚴禁投入家用垃圾，違者重罰新台幣6000元
中山區,民權東路,中山國小捷運站4號出口,121.5263889,25.0625,嚴禁投入家用垃圾，違者重罰新台幣6000元
中山區,中山北路,三段23號前,121.5219444,25.06472222,嚴禁投入家用垃圾，違者重罰新台幣6000元
中山區,中山北路,三段57號,121.5230556,25.06805556,嚴禁投入家用垃圾，違者重罰新台幣6000元
中山區,中山北路,三段8號前(撫順公園站牌前),121.5219444,25.06388889,嚴禁投入家用垃圾，違者重罰新台幣6000元
中山區,中山北路,三段47號前,121.5222222,25.06638889,嚴禁投入家用垃圾，違者重罰新台幣6000元
中山區,中山北路,三段51~3號前,121.5225,25.0675,嚴禁投入家用垃圾，違者重罰新台幣6000元
中山區,中山北路,三段單號(美術館公車站牌),121.5238889,25.07194444,嚴禁投入家用垃圾，違者重罰新台幣6000元
中山區,中山北路,三段單號(美術館公車站牌),121.5238889,25.07222222,嚴禁投入家用垃圾，違者重罰新台幣6000元
中山區,中山北路,三段40號前,121.5222222,25.06694444,嚴禁投入家用垃圾，違者重罰新台幣6000元
中山區,中山北路,二段124號前,121.5227778,25.06138889,嚴禁投入家用垃圾，違者重罰新台幣6000元
中山區,中山北路,二段112號前,121.5230556,25.06055556,嚴禁投入家用垃圾，違者重罰新台幣6000元
中山區,民權東路,一段69號公車道(東往西),121.5255556,25.0625,嚴禁投入家用垃圾，違者重罰新台幣6000元
中山區,民權東路,一段65號公車道,121.5255556,25.0625,嚴禁投入家用垃圾，違者重罰新台幣6000元
中正區,忠孝西路,一段70號前(懷寧街口),121.5141667,25.04666667,嚴禁投入家用垃圾，違者重罰新台幣6000元
中正區,忠孝西路,一段66號(新光三越前),121.5152778,25.04611111,嚴禁投入家用垃圾，違者重罰新台幣6000元
中正區,忠孝西路,一段66號(新光三越),121.5152778,25.04611111,嚴禁投入家用垃圾，違者重罰新台幣6000元
中正區,忠孝西路,一段50號(地下街Z2出入口),121.5155556,25.04638889,嚴禁投入家用垃圾，違者重罰新台幣6000元
中正區,忠孝西路,一段50號(大亞大廈),121.5158333,25.04638889,嚴禁投入家用垃圾，違者重罰新台幣6000元
中正區,忠孝西路,一段(台北車站捷運6號出入口),121.5166667,25.04611111,嚴禁投入家用垃圾，違者重罰新台幣6000元
中正區,忠孝西路,一段36號前(公園路),121.5169444,25.04583333,嚴禁投入家用垃圾，違者重罰新台幣6000元
中正區,忠孝西路,一段41號,121.5177778,25.04583333,嚴禁投入家用垃圾，違者重罰新台幣6000元
中正區,忠孝西路,一段45號,121.5175,25.04611111,嚴禁投入家用垃圾，違者重罰新台幣6000元
中正區,忠孝西路,一段(台北車站捷運3號出入口),121.5175,25.04611111,嚴禁投入家用垃圾，違者重罰新台幣6000元
中正區,忠孝西路,一段(台北車站捷運4號出入公園路口),121.5172222,25.04611111,嚴禁投入家用垃圾，違者重罰新台幣6000元
中正區,忠孝西路,一段(台北車站捷運4號出入口),121.5172222,25.04611111,嚴禁投入家用垃圾，違者重罰新台幣6000元
中正區,忠孝西路,一段(捷運4號出入口),121.5166667,25.04638889,嚴禁投入家用垃圾，違者重罰新台幣6000元
中正區,忠孝西路,一段(捷運4號出入口),121.5169444,25.04638889,嚴禁投入家用垃圾，違者重罰新台幣6000元
中正區,忠孝西路,一段(台北車站捷運5號與4號出入口中間),121.5161111,25.04638889,嚴禁投入家用垃圾，違者重罰新台幣6000元
中正區,忠孝西路,一段(台北車站捷運5號與4號出入口中間),121.5161111,25.04666667,嚴禁投入家用垃圾，違者重罰新台幣6000元
中正區,忠孝西路,一段(台北車站5號出入口北側),121.5161111,25.04666667,嚴禁投入家用垃圾，違者重罰新台幣6000元
中正區,北平西路,56號對面,121.5127778,25.04805556,嚴禁投入家用垃圾，違者重罰新台幣6000元
中正區,北平西路,58號對面,121.5125,25.04805556,嚴禁投入家用垃圾，違者重罰新台幣6000元
中正區,館前路,台北車站西側(館前路計程車排班處),121.515,25.04777778,嚴禁投入家用垃圾，違者重罰新台幣6000元
中正區,館前路,台北車站西側(館前路計程車排班處),121.515,25.0475,嚴禁投入家用垃圾，違者重罰新台幣6000元
中正區,北平西路,台北車站西側,121.5158333,25.04666667,嚴禁投入家用垃圾，違者重罰新台幣6000元
中正區,北平西路,台北車站西側,121.5161111,25.0475,嚴禁投入家用垃圾，違者重罰新台幣6000元
中正區,北平西路,台北車站西側,121.5161111,25.04777778,嚴禁投入家用垃圾，違者重罰新台幣6000元
中正區,北平西路,台北車站西側,121.5161111,25.04777778,嚴禁投入家用垃圾，違者重罰新台幣6000元
中正區,市民大道,台北車站北側(北1門),121.5175,25.04805556,嚴禁投入家用垃圾，違者重罰新台幣6000元
中正區,市民大道,捷運1號出入口,121.5177778,25.04805556,嚴禁投入家用垃圾，違者重罰新台幣6000元
中正區,市民大道,捷運1號出入口,121.5177778,25.04833333,嚴禁投入家用垃圾，違者重罰新台幣6000元
中正區,中山北路,一段與市民大道口,121.5202778,25.04777778,嚴禁投入家用垃圾，違者重罰新台幣6000元
中正區,中山北路,一段46號前(逸仙公園前),121.52,25.04722222,嚴禁投入家用垃圾，違者重罰新台幣6000元
中正區,北平西路,台北車站東側(行李托中心運後面),121.5188889,25.04777778,嚴禁投入家用垃圾，違者重罰新台幣6000元
中正區,北平西路,台北車站東側(東1門人行道),121.5186111,25.04777778,嚴禁投入家用垃圾，違者重罰新台幣6000元
中正區,北平西路,台北車站東側(東1門人行道),121.5180556,25.04777778,嚴禁投入家用垃圾，違者重罰新台幣6000元
中正區,北平西路,台北車站東側(東1門人行道),121.5180556,25.0475,嚴禁投入家用垃圾，違者重罰新台幣6000元
中正區,北平西路,台北車站東側(行李托運中心後面),121.5191667,25.04722222,嚴禁投入家用垃圾，違者重罰新台幣6000元
中正區,北平西路,台北車站東側(行李托運中心正門),121.5188889,25.0475,嚴禁投入家用垃圾，違者重罰新台幣6000元
中正區,北平西路,台北車站東側(行李托運中心正門),121.5188889,25.0475,嚴禁投入家用垃圾，違者重罰新台幣6000元
中正區,中山北路,一段42號前(北平西路口),121.5197222,25.04694444,嚴禁投入家用垃圾，違者重罰新台幣6000元
中正區,中山北路,一段14號前,121.5197222,25.04638889,嚴禁投入家用垃圾，違者重罰新台幣6000元
中正區,中山北路,一段6號前,121.5194444,25.04611111,嚴禁投入家用垃圾，違者重罰新台幣6000元
中正區,中山南路,2巷口,121.5191667,25.045,嚴禁投入家用垃圾，違者重罰新台幣6000元
中正區,中山南路,(西側)與青島西路口,121.5191667,25.04472222,嚴禁投入家用垃圾，違者重罰新台幣6000元
中正區,青島西路,健保局,121.5172222,25.045,嚴禁投入家用垃圾，違者重罰新台幣6000元
中正區,青島西路,健保局,121.5175,25.04527778,嚴禁投入家用垃圾，違者重罰新台幣6000元
中正區,青島西路,兒童醫院,121.5180556,25.04472222,嚴禁投入家用垃圾，違者重罰新台幣6000元
中正區,中山南路,台大兒童醫院正門,121.5188889,25.04388889,嚴禁投入家用垃圾，違者重罰新台幣6000元
中正區,中山南路,(西側)與濟南路口,121.5188889,25.04361111,嚴禁投入家用垃圾，違者重罰新台幣6000元
中正區,中山南路,(西側)濟南路與徐州路口中間,121.5183333,25.04277778,嚴禁投入家用垃圾，違者重罰新台幣6000元
中正區,中山南路,(西側)與徐州路口(北),121.5183333,25.04194444,嚴禁投入家用垃圾，違者重罰新台幣6000元
中正區,中山南路,台大醫院停車場前(南),121.5180556,25.04166667,嚴禁投入家用垃圾，違者重罰新台幣6000元
中正區,中山南路,(西側)與常德街口,121.5177778,25.04027778,嚴禁投入家用垃圾，違者重罰新台幣6000元
中正區,中山南路,(西側)凱達格蘭大道口（外交部）,121.5172222,25.03861111,嚴禁投入家用垃圾，違者重罰新台幣6000元
中正區,中山南路,(西側)外交部,121.5172222,25.03805556,嚴禁投入家用垃圾，違者重罰新台幣6000元
中正區,中山南路,20號(國家圖書館),121.5169444,25.0375,嚴禁投入家用垃圾，違者重罰新台幣6000元
中正區,中山南路,20號（國家圖書館）,121.5169444,25.03722222,嚴禁投入家用垃圾，違者重罰新台幣6000元
中正區,中山南路,教大附小後門,121.5163889,25.03583333,嚴禁投入家用垃圾，違者重罰新台幣6000元
中正區,公園路,與愛國西路口,121.5155556,25.035,嚴禁投入家用垃圾，違者重罰新台幣6000元
中正區,公園路,29號(教大附小),121.515,25.03555556,嚴禁投入家用垃圾，違者重罰新台幣6000元
中正區,公園路,29號(教大附小),121.515,25.03611111,嚴禁投入家用垃圾，違者重罰新台幣6000元
中正區,公園路,21號(弘道國中),121.515,25.03638889,嚴禁投入家用垃圾，違者重罰新台幣6000元
中正區,公園路,21號(弘道國中),121.515,25.03638889,嚴禁投入家用垃圾，違者重罰新台幣6000元
中正區,公園路,21號(弘道國中),121.515,25.03666667,嚴禁投入家用垃圾，違者重罰新台幣6000元
中正區,公園路,21號(弘道國中),121.515,25.03694444,嚴禁投入家用垃圾，違者重罰新台幣6000元
中正區,公園路,15之3號,121.5155556,25.04027778,嚴禁投入家用垃圾，違者重罰新台幣6000元
中正區,公園路,15之3號,121.5155556,25.04027778,嚴禁投入家用垃圾，違者重罰新台幣6000元
中正區,公園路,台大醫院,121.5161111,25.04138889,嚴禁投入家用垃圾，違者重罰新台幣6000元
中正區,公園路,台大醫院,121.5161111,25.04194444,嚴禁投入家用垃圾，違者重罰新台幣6000元
中正區,公園路,台大醫院,121.5155556,25.04361111,嚴禁投入家用垃圾，違者重罰新台幣6000元
中正區,公園路,台大醫院(復健部),121.5163889,25.04277778,嚴禁投入家用垃圾，違者重罰新台幣6000元
中正區,公園路,台大醫院,121.5166667,25.04388889,嚴禁投入家用垃圾，違者重罰新台幣6000元
中正區,公園路,(捷運台大站4號出入口),121.5163889,25.0425,嚴禁投入家用垃圾，違者重罰新台幣6000元
中正區,公園路,二二八公園,121.5161111,25.04222222,嚴禁投入家用垃圾，違者重罰新台幣6000元
中正區,公園路,二二八公園,121.5158333,25.04138889,嚴禁投入家用垃圾，違者重罰新台幣6000元
中正區,公園路,二二八公園,121.5161111,25.04166667,嚴禁投入家用垃圾，違者重罰新台幣6000元
中正區,公園路,介壽公園,121.515,25.03916667,嚴禁投入家用垃圾，違者重罰新台幣6000元
中正區,公園路,介壽公園,121.515,25.03861111,嚴禁投入家用垃圾，違者重罰新台幣6000元
中正區,貴陽街,一段(北一女旁),121.5144444,25.03861111,嚴禁投入家用垃圾，違者重罰新台幣6000元
中正區,公園路,中央氣象局,121.515,25.03805556,嚴禁投入家用垃圾，違者重罰新台幣6000元
中正區,公園路,教育大學,121.515,25.03611111,嚴禁投入家用垃圾，違者重罰新台幣6000元
中正區,公園路,教育大學,121.5147222,25.03555556,嚴禁投入家用垃圾，違者重罰新台幣6000元
中正區,重慶南路,教育大學側門,121.5125,25.03666667,嚴禁投入家用垃圾，違者重罰新台幣6000元
中正區,重慶南路,一段(北一女側門),121.5127778,25.0375,嚴禁投入家用垃圾，違者重罰新台幣6000元
中正區,重慶南路,一段(北一女側門),121.5127778,25.03833333,嚴禁投入家用垃圾，違者重罰新台幣6000元
中正區,重慶南路,一段30號(第一銀行前),121.5130556,25.04555556,嚴禁投入家用垃圾，違者重罰新台幣6000元
中正區,重慶南路,一段30號(第一銀行前),121.5130556,25.04527778,嚴禁投入家用垃圾，違者重罰新台幣6000元
中正區,重慶南路,一段124號(司法院)前,121.5125,25.03722222,嚴禁投入家用垃圾，違者重罰新台幣6000元
中正區,重慶南路,一段130號(法務部)前,121.5127778,25.03694444,嚴禁投入家用垃圾，違者重罰新台幣6000元
中正區,重慶南路,一段140號,121.5125,25.03555556,嚴禁投入家用垃圾，違者重罰新台幣6000元
中正區,中華路,一段89號,121.5072222,25.03805556,嚴禁投入家用垃圾，違者重罰新台幣6000元
中正區,中華路,一段77號,121.5075,25.03916667,嚴禁投入家用垃圾，違者重罰新台幣6000元
中正區,中華路,一段69號(北西福利站),121.5077778,25.03916667,嚴禁投入家用垃圾，違者重罰新台幣6000元
中正區,中華路,一段69號,121.5077778,25.03972222,嚴禁投入家用垃圾，違者重罰新台幣6000元
中正區,中華路,一段67號,121.5077778,25.04027778,嚴禁投入家用垃圾，違者重罰新台幣6000元
中正區,中華路,一段59號,121.5077778,25.04111111,嚴禁投入家用垃圾，違者重罰新台幣6000元
中正區,中華路,一段59號(公車候車亭),121.5077778,25.04194444,嚴禁投入家用垃圾，違者重罰新台幣6000元
中正區,中華路,一段(寶慶路口),121.5086111,25.04194444,嚴禁投入家用垃圾，違者重罰新台幣6000元
中正區,寶慶路,2號,121.5094444,25.04138889,嚴禁投入家用垃圾，違者重罰新台幣6000元
中正區,衡陽路,35號,121.5125,25.04222222,嚴禁投入家用垃圾，違者重罰新台幣6000元
中正區,衡陽路,91號,121.5102778,25.04222222,嚴禁投入家用垃圾，違者重罰新台幣6000元
中正區,衡陽路,91號,121.51,25.04222222,嚴禁投入家用垃圾，違者重罰新台幣6000元
中正區,中華路,一段53號,121.5086111,25.04305556,嚴禁投入家用垃圾，違者重罰新台幣6000元
中正區,中華路,一段51號(市警局),121.5091667,25.04388889,嚴禁投入家用垃圾，違者重罰新台幣6000元
中正區,中華路,一段49號,121.5091667,25.04444444,嚴禁投入家用垃圾，違者重罰新台幣6000元
中正區,中華路,一段41號,121.5091667,25.04472222,嚴禁投入家用垃圾，違者重罰新台幣6000元
中正區,中華路,一段39號,121.5091667,25.04555556,嚴禁投入家用垃圾，違者重罰新台幣6000元
中正區,中華路,一段29之3號(公車候車亭),121.5091667,25.04555556,嚴禁投入家用垃圾，違者重罰新台幣6000元
中正區,中華路,一段29之1號,121.5091667,25.04555556,嚴禁投入家用垃圾，違者重罰新台幣6000元
中正區,中華路,一段19號,121.5094444,25.04638889,嚴禁投入家用垃圾，違者重罰新台幣6000元
中正區,中華路,一段5號,121.5102778,25.04722222,嚴禁投入家用垃圾，違者重罰新台幣6000元
中正區,紹興南街,與信義路一段交叉口(大忠門左邊),121.5225,25.03611111,嚴禁投入家用垃圾，違者重罰新台幣6000元
中正區,紹興南街,與信義路一段交叉口(大忠門右邊),121.5227778,25.03611111,嚴禁投入家用垃圾，違者重罰新台幣6000元
中正區,信義路,二段211號前,121.5302778,25.03361111,嚴禁投入家用垃圾，違者重罰新台幣6000元
中正區,信義路,一段與杭州南路交叉口,121.5238889,25.03555556,嚴禁投入家用垃圾，違者重罰新台幣6000元
中正區,杭州南路,轉愛國東路交叉口,121.5225,25.03277778,嚴禁投入家用垃圾，違者重罰新台幣6000元
中正區,杭州南路,轉愛國東路交叉口,121.5222222,25.0325,嚴禁投入家用垃圾，違者重罰新台幣6000元
中正區,愛國東路,與寧波東街交叉口,121.5205556,25.03333333,嚴禁投入家用垃圾，違者重罰新台幣6000元
中正區,愛國東路,42號對面,121.5186111,25.03416667,嚴禁投入家用垃圾，違者重罰新台幣6000元
中正區,信義路,一段(國家音樂廳),121.5202778,25.03722222,嚴禁投入家用垃圾，違者重罰新台幣6000元
中正區,信義路,一段與林森南路口交叉口(公車站),121.5208333,25.03722222,嚴禁投入家用垃圾，違者重罰新台幣6000元
中正區,信義路,一段1號(中正運動中心),121.5191667,25.03833333,嚴禁投入家用垃圾，違者重罰新台幣6000元
中正區,信義路,一段1號(東門國小後門樹穴側邊),121.5197222,25.03805556,嚴禁投入家用垃圾，違者重罰新台幣6000元
中正區,信義路,一段與林森南路交叉口(公車站),121.5208333,25.03722222,嚴禁投入家用垃圾，違者重罰新台幣6000元
中正區,信義路,一段與林森南路交叉口(公車站),121.5208333,25.03722222,嚴禁投入家用垃圾，違者重罰新台幣6000元
中正區,信義路,一段3號前,121.5213889,25.03694444,嚴禁投入家用垃圾，違者重罰新台幣6000元
中正區,信義路,一段13-1號紹興南街交叉口,121.5225,25.03638889,嚴禁投入家用垃圾，違者重罰新台幣6000元
中正區,信義路,一段21號紹興南街交叉口,121.5230556,25.03638889,嚴禁投入家用垃圾，違者重罰新台幣6000元
中正區,信義路,一段21號杭州南路交叉口(公車站內),121.5247222,25.03555556,嚴禁投入家用垃圾，違者重罰新台幣6000元
中正區,信義路,一段21號(中華電信側門口),121.5241667,25.03555556,嚴禁投入家用垃圾，違者重罰新台幣6000元
中正區,信義路,一段與杭州南路交叉口,121.5238889,25.03583333,嚴禁投入家用垃圾，違者重罰新台幣6000元
中正區,信義路,二段與金山南路口(公車站內),121.5272222,25.03388889,嚴禁投入家用垃圾，違者重罰新台幣6000元
中正區,信義路,二段147號(渣打銀行外),121.5275,25.03416667,嚴禁投入家用垃圾，違者重罰新台幣6000元
中正區,信義路,二段207號前(公車站內),121.53,25.03361111,嚴禁投入家用垃圾，違者重罰新台幣6000元
中正區,信義路,二段與新生南路口(公車站內),121.5325,25.03388889,嚴禁投入家用垃圾，違者重罰新台幣6000元
中正區,杭州南路,一段75號前,121.5255556,25.03944444,嚴禁投入家用垃圾，違者重罰新台幣6000元
中正區,徐州路,46號,121.5244444,25.04027778,嚴禁投入家用垃圾，違者重罰新台幣6000元
中正區,徐州路,2之1號(台大護理學院),121.5194444,25.04166667,嚴禁投入家用垃圾，違者重罰新台幣6000元
中正區,徐州路,2之1號(台大急診室前),121.5202778,25.04138889,嚴禁投入家用垃圾，違者重罰新台幣6000元
中正區,林森南路,49號對面,121.5219444,25.04027778,嚴禁投入家用垃圾，違者重罰新台幣6000元
中正區,林森南路,東和禪寺對面,121.5216667,25.03944444,嚴禁投入家用垃圾，違者重罰新台幣6000元
中正區,杭州南路,交通部旁,121.525,25.03805556,嚴禁投入家用垃圾，違者重罰新台幣6000元
中正區,仁愛路,一段(交通部前),121.5247222,25.03833333,嚴禁投入家用垃圾，違者重罰新台幣6000元
中正區,仁愛路,一段26巷口,121.5225,25.03861111,嚴禁投入家用垃圾，違者重罰新台幣6000元
中正區,金山南路,一段159號旁,121.5272222,25.03444444,嚴禁投入家用垃圾，違者重罰新台幣6000元
中正區,信義路,二段15號前,121.5247222,25.035,嚴禁投入家用垃圾，違者重罰新台幣6000元
中正區,信義路,二段213號前,121.5305556,25.03361111,嚴禁投入家用垃圾，違者重罰新台幣6000元
中正區,中山南路,與愛國東路口交叉口,121.5172222,25.035,嚴禁投入家用垃圾，違者重罰新台幣6000元
中正區,中山南路,21號(自由廣場),121.5169444,25.03611111,嚴禁投入家用垃圾，違者重罰新台幣6000元
中正區,中山南路,21號(自由廣場),121.5175,25.0375,嚴禁投入家用垃圾，違者重罰新台幣6000元
中正區,中山南路,與貴陽街交叉口,121.5175,25.0375,嚴禁投入家用垃圾，違者重罰新台幣6000元
中正區,中山南路,與貴陽街交叉口,121.5175,25.03777778,嚴禁投入家用垃圾，違者重罰新台幣6000元
中正區,仁愛路,二段48-2號前,121.5291667,25.03972222,嚴禁投入家用垃圾，違者重罰新台幣6000元
中正區,仁愛路,一段42號(電信局前),121.5238889,25.03833333,嚴禁投入家用垃圾，違者重罰新台幣6000元
中正區,仁愛路,二段2號,121.5252778,25.03833333,嚴禁投入家用垃圾，違者重罰新台幣6000元
中正區,仁愛路,一段42號前(公車站),121.5236111,25.03861111,嚴禁投入家用垃圾，違者重罰新台幣6000元
中正區,仁愛路,二段44號,121.5280556,25.03805556,嚴禁投入家用垃圾，違者重罰新台幣6000元
中正區,仁愛路,二段48號(公車站牌),121.5277778,25.03805556,嚴禁投入家用垃圾，違者重罰新台幣6000元
中正區,仁愛路,二段前(公車站內108號對面) ,121.5322222,25.03805556,嚴禁投入家用垃圾，違者重罰新台幣6000元
中正區,仁愛路,二段29號前,121.5277778,25.03833333,嚴禁投入家用垃圾，違者重罰新台幣6000元
中正區,仁愛路,二段1號前,121.5255556,25.03861111,嚴禁投入家用垃圾，違者重罰新台幣6000元
中正區,仁愛路,二段3號公車站,121.5255556,25.03833333,嚴禁投入家用垃圾，違者重罰新台幣6000元
中正區,仁愛路,一段59號前,121.525,25.03861111,嚴禁投入家用垃圾，違者重罰新台幣6000元
中正區,仁愛路,一段37號前,121.5236111,25.03861111,嚴禁投入家用垃圾，違者重罰新台幣6000元
中正區,仁愛路,一段19號(青少年育樂中心),121.5225,25.03888889,嚴禁投入家用垃圾，違者重罰新台幣6000元
中正區,仁愛路,一段與林森南路交叉口(公車站內),121.5211111,25.03888889,嚴禁投入家用垃圾，違者重罰新台幣6000元
中正區,仁愛路,一段(東門國小正對面),121.5205556,25.03916667,嚴禁投入家用垃圾，違者重罰新台幣6000元
中正區,仁愛路,與中山南路口(單號),121.5186111,25.03944444,嚴禁投入家用垃圾，違者重罰新台幣6000元
中正區,中山南路,與仁愛路一段(公車站),121.5186111,25.03916667,嚴禁投入家用垃圾，違者重罰新台幣6000元
中正區,仁愛路,一段轉中山南路路口,121.5180556,25.03972222,嚴禁投入家用垃圾，違者重罰新台幣6000元
中正區,仁愛路,一段2之4號(東門國小前),121.5211111,25.03861111,嚴禁投入家用垃圾，違者重罰新台幣6000元
中正區,仁愛路,一段(東門國小公車站內),121.5211111,25.03888889,嚴禁投入家用垃圾，違者重罰新台幣6000元
中正區,仁愛路,一段(張榮發基金會),121.5183333,25.03916667,嚴禁投入家用垃圾，違者重罰新台幣6000元
中正區,中山南路,與仁愛路一段(台大公車站),121.5183333,25.03888889,嚴禁投入家用垃圾，違者重罰新台幣6000元
中正區,徐州路,15號前左側,121.5172222,25.03972222,嚴禁投入家用垃圾，違者重罰新台幣6000元
中正區,徐州路,13號(9號右側),121.5208333,25.04138889,嚴禁投入家用垃圾，違者重罰新台幣6000元
中正區,徐州路,5號(中央?合辦公大樓地下室前),121.5202778,25.04166667,嚴禁投入家用垃圾，違者重罰新台幣6000元
中正區,徐州路,5號(中央?合辦公大樓大門前),121.5194444,25.04166667,嚴禁投入家用垃圾，違者重罰新台幣6000元
中正區,濟南路,一段71號(成功高中前),121.5233333,25.0425,嚴禁投入家用垃圾，違者重罰新台幣6000元
中正區,濟南路,一段(台大側邊),121.5230556,25.04222222,嚴禁投入家用垃圾，違者重罰新台幣6000元
中正區,青島東路,監察院旁,121.5197222,25.04444444,嚴禁投入家用垃圾，違者重罰新台幣6000元
中正區,青島東路,立法院旁,121.52,25.04416667,嚴禁投入家用垃圾，違者重罰新台幣6000元
中正區,青島東路,立法院旁,121.5205556,25.04416667,嚴禁投入家用垃圾，違者重罰新台幣6000元
中正區,青島東路,10號(立法院第二會館),121.5222222,25.04361111,嚴禁投入家用垃圾，違者重罰新台幣6000元
中正區,青島東路,監察院旁,121.52,25.04444444,嚴禁投入家用垃圾，違者重罰新台幣6000元
中正區,紹興南街,與青島東路口(成功高中後方變電箱旁),121.5227778,25.04361111,嚴禁投入家用垃圾，違者重罰新台幣6000元
中正區,青島東路,立法院第三會館,121.5247222,25.04305556,嚴禁投入家用垃圾，違者重罰新台幣6000元
中正區,林森南路,開南商工側,121.5222222,25.04222222,嚴禁投入家用垃圾，違者重罰新台幣6000元
中正區,林森南路,開南商工側公車站牌前,121.5222222,25.04166667,嚴禁投入家用垃圾，違者重罰新台幣6000元
中正區,濟南路,一段台大側邊,121.5227778,25.04194444,嚴禁投入家用垃圾，違者重罰新台幣6000元
中正區,濟南路,一段(立法院康園餐廳右側),121.5227778,25.04388889,嚴禁投入家用垃圾，違者重罰新台幣6000元
中正區,林森南路,與徐州路口(開南商工側),121.5222222,25.04138889,嚴禁投入家用垃圾，違者重罰新台幣6000元
中正區,市民大道,三段(機車停車格旁),121.5322222,25.04527778,嚴禁投入家用垃圾，違者重罰新台幣6000元
中正區,林森北路,警政署旁,121.5236111,25.04611111,嚴禁投入家用垃圾，違者重罰新台幣6000元
中正區,林森北路,(單號側)與市民大道口,121.5241667,25.0475,嚴禁投入家用垃圾，違者重罰新台幣6000元
中正區,林森北路,警政署旁,121.5233333,25.04527778,嚴禁投入家用垃圾，違者重罰新台幣6000元
中正區,市民大道,華山公園前公車站旁,121.5269444,25.04694444,嚴禁投入家用垃圾，違者重罰新台幣6000元
中正區,市民大道,與天津街口(公車站旁),121.5233333,25.0475,嚴禁投入家用垃圾，違者重罰新台幣6000元
中正區,新生北路,一段與八德路口,121.5327778,25.04444444,嚴禁投入家用垃圾，違者重罰新台幣6000元
中正區,忠孝東路,二段41號(公車站牌),121.5283333,25.04361111,嚴禁投入家用垃圾，違者重罰新台幣6000元
中正區,忠孝東路,一段(警政署前),121.5327778,25.045,嚴禁投入家用垃圾，違者重罰新台幣6000元
中正區,林森南路,與青島東路口(疾病管制局旁),121.5227778,25.04361111,嚴禁投入家用垃圾，違者重罰新台幣6000元
中正區,濟南路,一段與紹興南街口(台北商專技術學院右側) ,121.5244444,25.04194444,嚴禁投入家用垃圾，違者重罰新台幣6000元
中正區,林森南路,10號(公車站前),121.5247222,25.04305556,嚴禁投入家用垃圾，違者重罰新台幣6000元
中正區,濟南路,一段5號(中聯辦前),121.5208333,25.04277778,嚴禁投入家用垃圾，違者重罰新台幣6000元
中正區,濟南路,一段與鎮江街口,121.5219444,25.04277778,嚴禁投入家用垃圾，違者重罰新台幣6000元
中正區,北平東路,5號,121.5216667,25.04583333,嚴禁投入家用垃圾，違者重罰新台幣6000元
中正區,濟南路,一段(立法院停車場入口旁),121.5208333,25.04305556,嚴禁投入家用垃圾，違者重罰新台幣6000元
中正區,天津街,新聞局右側,121.5216667,25.04583333,嚴禁投入家用垃圾，違者重罰新台幣6000元
中正區,天津街 ,與忠孝東路口,121.5216667,25.04527778,嚴禁投入家用垃圾，違者重罰新台幣6000元
中正區,忠孝東路,一段(捷運善導寺6號出口旁),121.525,25.04444444,嚴禁投入家用垃圾，違者重罰新台幣6000元
中正區,北平東路,行政院後側　,121.5208333,25.04694444,嚴禁投入家用垃圾，違者重罰新台幣6000元
中正區,北平東路,行政院後側　,121.5213889,25.04694444,嚴禁投入家用垃圾，違者重罰新台幣6000元
中正區,忠孝東路,二段80號,121.5263889,25.04388889,嚴禁投入家用垃圾，違者重罰新台幣6000元
中正區,八德路,一段47號前(希望廣場前紅磚道),121.5322222,25.04444444,嚴禁投入家用垃圾，違者重罰新台幣6000元
中正區,新生南路,一段與臨沂街3巷口,121.5327778,25.04388889,嚴禁投入家用垃圾，違者重罰新台幣6000元
中正區,新生南路,一段(公車站邊),121.5327778,25.04472222,嚴禁投入家用垃圾，違者重罰新台幣6000元
中正區,忠孝東路,一段號12號(喜來登飯店前),121.5222222,25.04472222,嚴禁投入家用垃圾，違者重罰新台幣6000元
中正區,新生南路,一段與濟南路口(公車專用道),121.5325,25.04027778,嚴禁投入家用垃圾，違者重罰新台幣6000元
中正區,新生南路,一段122之3號(公車專用道),121.5325,25.03861111,嚴禁投入家用垃圾，違者重罰新台幣6000元
中正區,忠孝東路,一段66號與林森南路口(麥當勞旁),121.5236111,25.04472222,嚴禁投入家用垃圾，違者重罰新台幣6000元
中正區,忠孝東路,一段112號(遠東銀行前),121.525,25.04416667,嚴禁投入家用垃圾，違者重罰新台幣6000元
中正區,忠孝東路,一段168號(公車站前),121.5261111,25.04388889,嚴禁投入家用垃圾，違者重罰新台幣6000元
中正區,新生南路,一段與八德路口,121.5327778,25.04416667,嚴禁投入家用垃圾，違者重罰新台幣6000元
中正區,八德路,一段43巷口(號誌桿與路燈桿間),121.5319444,25.04416667,嚴禁投入家用垃圾，違者重罰新台幣6000元
中正區,金山南路,一段21號(公車站牌),121.5291667,25.04055556,嚴禁投入家用垃圾，違者重罰新台幣6000元
中正區,鎮江街,2號(監察院側門旁),121.5213889,25.045,嚴禁投入家用垃圾，違者重罰新台幣6000元
中正區,鎮江街,4號(監察院側門旁),121.5213889,25.04472222,嚴禁投入家用垃圾，違者重罰新台幣6000元
中正區,新生南路,一段8號前紅磚道,121.5327778,25.04388889,嚴禁投入家用垃圾，違者重罰新台幣6000元
中正區,林森南路,與徐州路口(台大理學院右側),121.5225,25.04111111,嚴禁投入家用垃圾，違者重罰新台幣6000元
中正區,忠孝東路,二段(忠孝國小前公車站牌),121.5311111,25.04277778,嚴禁投入家用垃圾，違者重罰新台幣6000元
中正區,仁愛路,二段59號(臨沂街口),121.5297222,25.03833333,嚴禁投入家用垃圾，違者重罰新台幣6000元
中正區,仁愛路,二段71號,121.5308333,25.03833333,嚴禁投入家用垃圾，違者重罰新台幣6000元
中正區,忠孝東路,一段2號(監察院前),121.5205556,25.04527778,嚴禁投入家用垃圾，違者重罰新台幣6000元
中正區,仁愛路,二段55號(公車站牌),121.5297222,25.03833333,嚴禁投入家用垃圾，違者重罰新台幣6000元
中正區,中山南路,一段5號(徐州路口),121.5180556,25.04694444,嚴禁投入家用垃圾，違者重罰新台幣6000元
中正區,中山南路,一段(教育部前),121.5180556,25.04694444,嚴禁投入家用垃圾，違者重罰新台幣6000元
中正區,中山南路,一段與濟南路口(教會前),121.5188889,25.04305556,嚴禁投入家用垃圾，違者重罰新台幣6000元
中正區,中山南路,一段(立法院側門),121.5191667,25.04361111,嚴禁投入家用垃圾，違者重罰新台幣6000元
中正區,中山南路,一段(立法院大門),121.5191667,25.04388889,嚴禁投入家用垃圾，違者重罰新台幣6000元
中正區,中山南路,一段(監察院邊),121.5194444,25.04416667,嚴禁投入家用垃圾，違者重罰新台幣6000元
中正區,中山北路,一段(行政院右側),121.5197222,25.04527778,嚴禁投入家用垃圾，違者重罰新台幣6000元
中正區,中山北路,一段(行政院右側),121.5197222,25.04611111,嚴禁投入家用垃圾，違者重罰新台幣6000元
中正區,中山北路,一段(行政院右側),121.5202778,25.04666667,嚴禁投入家用垃圾，違者重罰新台幣6000元
中正區,中山南路,一段(監察院前),121.5202778,25.04527778,嚴禁投入家用垃圾，違者重罰新台幣6000元
中正區,忠孝東路,一段70巷口,121.5236111,25.04472222,嚴禁投入家用垃圾，違者重罰新台幣6000元
中正區,忠孝東路,一段與天津街口(行政院右側),121.5219444,25.04527778,嚴禁投入家用垃圾，違者重罰新台幣6000元
中正區,忠孝東路,一段2號(監察院前),121.5202778,25.04527778,嚴禁投入家用垃圾，違者重罰新台幣6000元
中正區,忠孝東路,一段近天津街口(警政署前),121.5227778,25.045,嚴禁投入家用垃圾，違者重罰新台幣6000元
中正區,忠孝東路,二段27號(公車站牌旁),121.5277778,25.04388889,嚴禁投入家用垃圾，違者重罰新台幣6000元
中正區,和平西路,一段(雙)150號,121.5155556,25.02722222,嚴禁投入家用垃圾，違者重罰新台幣6000元
中正區,汀州路,二段19號對面(螢橋國小公車站牌),121.5147222,25.02611111,嚴禁投入家用垃圾，違者重罰新台幣6000元
中正區,和平西路,一段(雙)2號,121.5222222,25.02722222,嚴禁投入家用垃圾，違者重罰新台幣6000元
中正區,和平西路,一段(單)5號,121.5219444,25.02722222,嚴禁投入家用垃圾，違者重罰新台幣6000元
中正區,和平西路,一段(單)南昌公園,121.5205556,25.02666667,嚴禁投入家用垃圾，違者重罰新台幣6000元
中正區,和平西路,一段(南昌公園),121.5205556,25.02666667,嚴禁投入家用垃圾，違者重罰新台幣6000元
中正區,和平西路,與牯嶺街60巷,121.5169444,25.02694444,嚴禁投入家用垃圾，違者重罰新台幣6000元
中正區,和平西路,與褔州街口,121.5163889,25.02722222,嚴禁投入家用垃圾，違者重罰新台幣6000元
中正區,重慶南路,三段37號,121.5158333,25.02805556,嚴禁投入家用垃圾，違者重罰新台幣6000元
中正區,重慶南路,三段37號旁,121.5158333,25.02805556,嚴禁投入家用垃圾，違者重罰新台幣6000元
中正區,重慶南路,三段9號至11號中間,121.5155556,25.02916667,嚴禁投入家用垃圾，違者重罰新台幣6000元
中正區,重慶南路,三段1-4號,121.5155556,25.02944444,嚴禁投入家用垃圾，違者重罰新台幣6000元
中正區,重慶南路,三段1號至3號中間,121.5155556,25.02972222,嚴禁投入家用垃圾，違者重罰新台幣6000元
中正區,重慶南路,二段51號,121.5147222,25.03111111,嚴禁投入家用垃圾，違者重罰新台幣6000元
中正區,重慶南路,二段45號(單),121.5147222,25.03166667,嚴禁投入家用垃圾，違者重罰新台幣6000元
中正區,重慶南路,二段43號,121.5147222,25.03166667,嚴禁投入家用垃圾，違者重罰新台幣6000元
中正區,重慶南路,二段43號(單)(陸橋上),121.5147222,25.03194444,嚴禁投入家用垃圾，違者重罰新台幣6000元
中正區,重慶南路,二段23號,121.5141667,25.0325,嚴禁投入家用垃圾，違者重罰新台幣6000元
中正區,重慶南路,二段15號,121.5141667,25.03277778,嚴禁投入家用垃圾，違者重罰新台幣6000元
中正區,重慶南路,二段9號,121.5136111,25.03305556,嚴禁投入家用垃圾，違者重罰新台幣6000元
中正區,南海路,1號,121.5175,25.03222222,嚴禁投入家用垃圾，違者重罰新台幣6000元
中正區,南海路,3之1號,121.5158333,25.0325,嚴禁投入家用垃圾，違者重罰新台幣6000元
中正區,南海路,36-38號對面,121.5158333,25.03222222,嚴禁投入家用垃圾，違者重罰新台幣6000元
中正區,南海路,15號,121.515,25.03222222,嚴禁投入家用垃圾，違者重罰新台幣6000元
中正區,南昌路,2之2號,121.5155556,25.03361111,嚴禁投入家用垃圾，違者重罰新台幣6000元
中正區,南昌路,2號(10巷口),121.5155556,25.03333333,嚴禁投入家用垃圾，違者重罰新台幣6000元
中正區,南昌路,2號,121.5163889,25.03277778,嚴禁投入家用垃圾，違者重罰新台幣6000元
中正區,南昌路,1號,121.5161111,25.03277778,嚴禁投入家用垃圾，違者重罰新台幣6000元
中正區,南昌路,1號,121.5155556,25.03361111,嚴禁投入家用垃圾，違者重罰新台幣6000元
中正區,南昌路,1之1號,121.5152778,25.03388889,嚴禁投入家用垃圾，違者重罰新台幣6000元
中正區,愛國西路,2號,121.5158333,25.03444444,嚴禁投入家用垃圾，違者重罰新台幣6000元
中正區,羅斯福路,一段4號,121.5175,25.03361111,嚴禁投入家用垃圾，違者重罰新台幣6000元
中正區,羅斯福路,一段6號(作資源回收桶),121.5177778,25.03472222,嚴禁投入家用垃圾，違者重罰新台幣6000元
中正區,羅斯福路,一段6號,121.5177778,25.03472222,嚴禁投入家用垃圾，違者重罰新台幣6000元
中正區,羅斯福路,一段8號,121.5183333,25.0325,嚴禁投入家用垃圾，違者重罰新台幣6000元
中正區,羅斯福路,一段8號,121.5183333,25.0325,嚴禁投入家用垃圾，違者重罰新台幣6000元
中正區,羅斯福路,一段22號,121.5188889,25.03166667,嚴禁投入家用垃圾，違者重罰新台幣6000元
中正區,羅斯福路,一段46號,121.5197222,25.03138889,嚴禁投入家用垃圾，違者重罰新台幣6000元
中正區,羅斯福路,二段4巷口,121.5205556,25.02916667,嚴禁投入家用垃圾，違者重罰新台幣6000元
中正區,羅斯福路,二段4巷口(作資源回收桶),121.5205556,25.02916667,嚴禁投入家用垃圾，違者重罰新台幣6000元
中正區,羅斯福路,二段10號,121.5211111,25.02888889,嚴禁投入家用垃圾，違者重罰新台幣6000元
中正區,羅斯福路,二段40號,121.5216667,25.02805556,嚴禁投入家用垃圾，違者重罰新台幣6000元
中正區,羅斯福路,2段11號,121.5211111,25.02805556,嚴禁投入家用垃圾，違者重罰新台幣6000元
中正區,羅斯福路,二段7之4號,121.5272222,25.02138889,嚴禁投入家用垃圾，違者重罰新台幣6000元
中正區,羅斯福路,二段7之4號,121.5272222,25.02138889,嚴禁投入家用垃圾，違者重罰新台幣6000元
中正區,羅斯福路,二段5號,121.5208333,25.02916667,嚴禁投入家用垃圾，違者重罰新台幣6000元
中正區,羅斯福路,二段5號,121.5208333,25.02916667,嚴禁投入家用垃圾，違者重罰新台幣6000元
中正區,羅斯福路,二段1號,121.5208333,25.02916667,嚴禁投入家用垃圾，違者重罰新台幣6000元
中正區,羅斯福路,一段43號(捷運3號出口),121.5188889,25.02916667,嚴禁投入家用垃圾，違者重罰新台幣6000元
中正區,羅斯福路,1段43號,121.5186111,25.03222222,嚴禁投入家用垃圾，違者重罰新台幣6000元
中正區,羅斯福路,1段43號,121.5186111,25.03222222,嚴禁投入家用垃圾，違者重罰新台幣6000元
中正區,羅斯福路,一段7號(單),121.5186111,25.0325,嚴禁投入家用垃圾，違者重罰新台幣6000元
中正區,羅斯福路,一段7號,121.5186111,25.0325,嚴禁投入家用垃圾，違者重罰新台幣6000元
中正區,羅斯福路,一段5號,121.5175,25.03416667,嚴禁投入家用垃圾，違者重罰新台幣6000元
中正區,羅斯福路,一段1號(單),121.5172222,25.03444444,嚴禁投入家用垃圾，違者重罰新台幣6000元
中正區,愛國東路,104號,121.5211111,25.03333333,嚴禁投入家用垃圾，違者重罰新台幣6000元
中正區,愛國東路,108號,121.5211111,25.03277778,嚴禁投入家用垃圾，違者重罰新台幣6000元
中正區,愛國東路,114號,121.5213889,25.0325,嚴禁投入家用垃圾，違者重罰新台幣6000元
中正區,羅斯福路,二段56號,121.5219444,25.02805556,嚴禁投入家用垃圾，違者重罰新台幣6000元
中正區,羅斯福路,二段56號前,121.5216667,25.02777778,嚴禁投入家用垃圾，違者重罰新台幣6000元
中正區,羅斯福路,二段68號(雙),121.5222222,25.0275,嚴禁投入家用垃圾，違者重罰新台幣6000元
中正區,羅斯福路,二段142號,121.5233333,25.02583333,嚴禁投入家用垃圾，違者重罰新台幣6000元
中正區,羅斯福路,二段142號,121.5233333,25.02583333,嚴禁投入家用垃圾，違者重罰新台幣6000元
中正區,羅斯福路,二段(公車站),121.5244444,25.02444444,嚴禁投入家用垃圾，違者重罰新台幣6000元
中正區,羅斯福路,二段(公車站),121.5244444,25.02444444,嚴禁投入家用垃圾，違者重罰新台幣6000元
中正區,羅斯福路,三段46巷,121.5255556,25.02277778,嚴禁投入家用垃圾，違者重罰新台幣6000元
中正區,羅斯福路,三段62號,121.5261111,25.0225,嚴禁投入家用垃圾，違者重罰新台幣6000元
中正區,羅斯福路,三段74之1號,121.5263889,25.02222222,嚴禁投入家用垃圾，違者重罰新台幣6000元
中正區,羅斯福路,三段100之1號,121.5272222,25.02166667,嚴禁投入家用垃圾，違者重罰新台幣6000元
中正區,羅斯福路,三段100之18號,121.5275,25.02138889,嚴禁投入家用垃圾，違者重罰新台幣6000元
中正區,博愛路,216號,121.5105556,25.03472222,嚴禁投入家用垃圾，違者重罰新台幣6000元
中正區,愛國西路,50號(公車站旁),121.5075,25.03694444,嚴禁投入家用垃圾，違者重罰新台幣6000元
中正區,愛國西路,42巷口右側(公車站牌),121.5086111,25.03638889,嚴禁投入家用垃圾，違者重罰新台幣6000元
中正區,愛國西路,36巷口,121.5097222,25.03583333,嚴禁投入家用垃圾，違者重罰新台幣6000元
中正區,愛國西路,16號(公車站旁),121.5119444,25.03527778,嚴禁投入家用垃圾，違者重罰新台幣6000元
中正區,重慶南路,二段10號(公用電話旁),121.5133333,25.03361111,嚴禁投入家用垃圾，違者重罰新台幣6000元
中正區,南海路,與重慶南路口(天橋上),121.5141667,25.03194444,嚴禁投入家用垃圾，違者重罰新台幣6000元
中正區,南海路,與重慶南路口(天橋上),121.5144444,25.03166667,嚴禁投入家用垃圾，違者重罰新台幣6000元
中正區,南海路,39號(公車站旁),121.5127778,25.03166667,嚴禁投入家用垃圾，違者重罰新台幣6000元
中正區,和平西路,二段(植物園前),121.5088889,25.03083333,嚴禁投入家用垃圾，違者重罰新台幣6000元
中正區,和平西路,二段100號,121.51,25.03,嚴禁投入家用垃圾，違者重罰新台幣6000元
中正區,和平西路,二段55號(公車站旁),121.5116667,25.02916667,嚴禁投入家用垃圾，違者重罰新台幣6000元
中正區,南海路,56號(建中旁),121.5133333,25.03166667,嚴禁投入家用垃圾，違者重罰新台幣6000元
中正區,南海路,228紀念館,121.5144444,25.03194444,嚴禁投入家用垃圾，違者重罰新台幣6000元
中正區,泉州街,1號,121.5136111,25.03111111,嚴禁投入家用垃圾，違者重罰新台幣6000元
中正區,泉州街,9巷口(人行道),121.5138889,25.03055556,嚴禁投入家用垃圾，違者重罰新台幣6000元
中正區,重慶南路,三段2號,121.5158333,25.02944444,嚴禁投入家用垃圾，違者重罰新台幣6000元
中正區,重慶南路,三段30號(公車站旁),121.5155556,25.02888889,嚴禁投入家用垃圾，違者重罰新台幣6000元
中正區,南海路,60號(公車站旁),121.5083333,25.03,嚴禁投入家用垃圾，違者重罰新台幣6000元
中正區,南海路,110之1號(公車站旁),121.5077778,25.02777778,嚴禁投入家用垃圾，違者重罰新台幣6000元
中正區,和平西路,二段137號,121.5058333,25.03333333,嚴禁投入家用垃圾，違者重罰新台幣6000元
中正區,重慶南路,二段(中正二分局前),121.5141667,25.0325,嚴禁投入家用垃圾，違者重罰新台幣6000元
中正區,重慶南路,二段96號,121.5152778,25.03,嚴禁投入家用垃圾，違者重罰新台幣6000元
中正區,和平西路,二段102號,121.5088889,25.03055556,嚴禁投入家用垃圾，違者重罰新台幣6000元
中正區,和平西路,二段66號,121.5116667,25.02916667,嚴禁投入家用垃圾，違者重罰新台幣6000元
中正區,羅斯福路,三段128巷口天橋下,121.5361111,25.02277778,嚴禁投入家用垃圾，違者重罰新台幣6000元
中正區,羅斯福路,三段128巷口天橋下人行道上,121.5361111,25.02277778,嚴禁投入家用垃圾，違者重罰新台幣6000元
中正區,羅斯福路,三段128巷口公車站,121.5366667,25.02222222,嚴禁投入家用垃圾，違者重罰新台幣6000元
中正區,羅斯福路,三段156號(公車候車亭),121.5366667,25.02222222,嚴禁投入家用垃圾，違者重罰新台幣6000元
中正區,羅斯福路,三段辛亥路耕莘文教院前,121.5377778,25.02111111,嚴禁投入家用垃圾，違者重罰新台幣6000元
中正區,羅斯福路,三段210巷旁,121.5377778,25.02111111,嚴禁投入家用垃圾，違者重罰新台幣6000元
中正區,羅斯福路,三段242號(公車候車亭),121.5405556,25.01805556,嚴禁投入家用垃圾，違者重罰新台幣6000元
中正區,羅斯福路,三段242號(公車候車亭),121.5408333,25.01805556,嚴禁投入家用垃圾，違者重罰新台幣6000元
中正區,羅斯福路,三段260號,121.5416667,25.01722222,嚴禁投入家用垃圾，違者重罰新台幣6000元
中正區,羅斯福路,三段266號,121.5416667,25.01722222,嚴禁投入家用垃圾，違者重罰新台幣6000元
中正區,羅斯福路,四段34號,121.5333333,25.02555556,嚴禁投入家用垃圾，違者重罰新台幣6000元
中正區,羅斯福路,四段38號,121.5336111,25.02555556,嚴禁投入家用垃圾，違者重罰新台幣6000元
中正區,羅斯福路,四段38號之一,121.5333333,25.02555556,嚴禁投入家用垃圾，違者重罰新台幣6000元
中正區,羅斯福路,四段46號之一,121.5338889,25.025,嚴禁投入家用垃圾，違者重罰新台幣6000元
中正區,羅斯福路,四段68號,121.5347222,25.02416667,嚴禁投入家用垃圾，違者重罰新台幣6000元
中正區,羅斯福路,四段74號,121.535,25.02388889,嚴禁投入家用垃圾，違者重罰新台幣6000元
中正區,羅斯福路,四段74號(公車候車亭),121.5352778,25.02388889,嚴禁投入家用垃圾，違者重罰新台幣6000元
中正區,羅斯福路,四段76號(公車候車亭),121.5352778,25.02361111,嚴禁投入家用垃圾，違者重罰新台幣6000元
中正區,羅斯福路,四段88號,121.5358333,25.02305556,嚴禁投入家用垃圾，違者重罰新台幣6000元
中正區,羅斯福路,四段106號,121.5363889,25.0225,嚴禁投入家用垃圾，違者重罰新台幣6000元
中正區,羅斯福路,四段112號,121.5366667,25.02222222,嚴禁投入家用垃圾，違者重罰新台幣6000元
中正區,羅斯福路,四段118號,121.5369444,25.02194444,嚴禁投入家用垃圾，違者重罰新台幣6000元
中正區,羅斯福路,四段124號,121.5369444,25.02194444,嚴禁投入家用垃圾，違者重罰新台幣6000元
中正區,羅斯福路,四段130號,121.5372222,25.02166667,嚴禁投入家用垃圾，違者重罰新台幣6000元
中正區,羅斯福路,四段142號,121.5375,25.02111111,嚴禁投入家用垃圾，違者重罰新台幣6000元
中正區,羅斯福路,四段162號,121.5380556,25.02055556,嚴禁投入家用垃圾，違者重罰新台幣6000元
內湖區,文德路,50號(文德3號公園前),121.5802778,25.07861111,嚴禁投入家用垃圾，違者重罰新台幣6000元
內湖區,成功路,三段(內湖國中成功路側門右邊),121.5897222,25.07722222,嚴禁投入家用垃圾，違者重罰新台幣6000元
內湖區,成功路,三段(內湖國中成功路側門右邊),121.5897222,25.07722222,嚴禁投入家用垃圾，違者重罰新台幣6000元
內湖區,行善路,35號公車站牌,121.5761111,25.05666667,嚴禁投入家用垃圾，違者重罰新台幣6000元
內湖區,成功路,二段312巷口(湖興公園前),121.5902778,25.06694444,嚴禁投入家用垃圾，違者重罰新台幣6000元
內湖區,成功路,二段193巷口(下灣公園前),121.5908333,25.06666667,嚴禁投入家用垃圾，違者重罰新台幣6000元
內湖區,成功路,二段(三軍總院站牌),121.5902778,25.07111111,嚴禁投入家用垃圾，違者重罰新台幣6000元
內湖區,成功路,二段369號(橡木桶前),121.5897222,25.07194444,嚴禁投入家用垃圾，違者重罰新台幣6000元
內湖區,民權東路,六段156號(土地銀行前),121.5916667,25.06888889,嚴禁投入家用垃圾，違者重罰新台幣6000元
內湖區,民權東路,六段163巷口,121.5961111,25.06833333,嚴禁投入家用垃圾，違者重罰新台幣6000元
內湖區,民權東路,六段109號(彰化銀行前),121.5919444,25.06861111,嚴禁投入家用垃圾，違者重罰新台幣6000元
內湖區,行善路,35號公車站牌,121.5761111,25.05694444,嚴禁投入家用垃圾，違者重罰新台幣6000元
內湖區,文德路,212號(燦坤賣場右前),121.5841667,25.07861111,嚴禁投入家用垃圾，違者重罰新台幣6000元
內湖區,文德路,212號(燦坤賣場左前),121.5841667,25.07833333,嚴禁投入家用垃圾，違者重罰新台幣6000元
內湖區,文德路,214號(捷運站左邊30公尺),121.5847222,25.07833333,嚴禁投入家用垃圾，違者重罰新台幣6000元
內湖區,文德路,218號(內湖高中右邊30公尺),121.5855556,25.07833333,嚴禁投入家用垃圾，違者重罰新台幣6000元
內湖區,文德路,175號前(捷運站旁),121.5861111,25.07888889,嚴禁投入家用垃圾，違者重罰新台幣6000元
內湖區,民權東路,六段99號(行政大樓車場出口左邊),121.5886111,25.06916667,嚴禁投入家用垃圾，違者重罰新台幣6000元
內湖區,民權東路,六段97號(士林地方法院前),121.5883333,25.06916667,嚴禁投入家用垃圾，違者重罰新台幣6000元
內湖區,民權東路,六段138號(新湖國小前),121.5886111,25.06888889,嚴禁投入家用垃圾，違者重罰新台幣6000元
內湖區,成功路,二段322號(停車場前),121.5908333,25.06777778,嚴禁投入家用垃圾，違者重罰新台幣6000元
內湖區,成功路,二段233號(薑母鴨前),121.5911111,25.0675,嚴禁投入家用垃圾，違者重罰新台幣6000元
內湖區,成功路,五段2號,121.6002778,25.08472222,嚴禁投入家用垃圾，違者重罰新台幣6000元
內湖區,成功路,四段360號,121.6013889,25.08555556,嚴禁投入家用垃圾，違者重罰新台幣6000元
內湖區,成功路,四段180號,121.5941667,25.08305556,嚴禁投入家用垃圾，違者重罰新台幣6000元
內湖區,成功路,四段180號,121.5933333,25.08305556,嚴禁投入家用垃圾，違者重罰新台幣6000元
內湖區,成功路,四段64號,121.5925,25.0825,嚴禁投入家用垃圾，違者重罰新台幣6000元
內湖區,成功路,四段30巷口,121.5916667,25.08138889,嚴禁投入家用垃圾，違者重罰新台幣6000元
內湖區,成功路,三段61號方濟中學,121.5897222,25.07694444,嚴禁投入家用垃圾，違者重罰新台幣6000元
內湖區,成功路,四段57號,121.5922222,25.08166667,嚴禁投入家用垃圾，違者重罰新台幣6000元
內湖區,成功路,四段155號,121.5938889,25.08305556,嚴禁投入家用垃圾，違者重罰新台幣6000元
內湖區,成功路,四段363號,121.6002778,25.08444444,嚴禁投入家用垃圾，違者重罰新台幣6000元
內湖區,成功路,五段大湖公園站1,121.6022222,25.08333333,嚴禁投入家用垃圾，違者重罰新台幣6000元
內湖區,成功路,五段大湖公園2,121.6044444,25.08277778,嚴禁投入家用垃圾，違者重罰新台幣6000元
內湖區,成功路,五段大湖公園3,121.605,25.08277778,嚴禁投入家用垃圾，違者重罰新台幣6000元
內湖區,成功路,五段大湖公園5,121.6072222,25.07972222,嚴禁投入家用垃圾，違者重罰新台幣6000元
內湖區,成功路,五段大湖公園站4,121.6027778,25.08361111,嚴禁投入家用垃圾，違者重罰新台幣6000元
內湖區,金龍路,113號,121.5905556,25.08638889,嚴禁投入家用垃圾，違者重罰新台幣6000元
內湖區,金龍路,234號,121.5866667,25.08861111,嚴禁投入家用垃圾，違者重罰新台幣6000元
內湖區,內湖路,二段179巷73弄口,121.5841667,25.08472222,嚴禁投入家用垃圾，違者重罰新台幣6000元
內湖區,康樂街,116號公車站牌前,121.6191667,25.07111111,嚴禁投入家用垃圾，違者重罰新台幣6000元
內湖區,東湖路,69號前,121.615,25.06861111,嚴禁投入家用垃圾，違者重罰新台幣6000元
內湖區,康寧路,3段183號,121.6113889,25.07,嚴禁投入家用垃圾，違者重罰新台幣6000元
內湖區,康寧路,3段105號前,121.6108333,25.07111111,嚴禁投入家用垃圾，違者重罰新台幣6000元
內湖區,康寧路,3段81號公車站牌,121.6094444,25.07194444,嚴禁投入家用垃圾，違者重罰新台幣6000元
內湖區,成功路,5段39號前,121.6069444,25.0775,嚴禁投入家用垃圾，違者重罰新台幣6000元
內湖區,成功路,5段404號對面候車亭,121.6069444,25.07611111,嚴禁投入家用垃圾，違者重罰新台幣6000元
內湖區,成功路,5段404號對面候車亭,121.6072222,25.07611111,嚴禁投入家用垃圾，違者重罰新台幣6000元
內湖區,金湖路,326巷口,121.6019444,25.07416667,嚴禁投入家用垃圾，違者重罰新台幣6000元
內湖區,金湖路,347巷口,121.6016667,25.07416667,嚴禁投入家用垃圾，違者重罰新台幣6000元
內湖區,金湖路,團管區前,121.6027778,25.07361111,嚴禁投入家用垃圾，違者重罰新台幣6000元
內湖區,民權東路,6段471號,121.6041667,25.07277778,嚴禁投入家用垃圾，違者重罰新台幣6000元
內湖區,康寧路,3段16巷捷運葫洲站,121.6069444,25.07305556,嚴禁投入家用垃圾，違者重罰新台幣6000元
內湖區,康寧路,3段54之5號公車站牌前,121.6091667,25.07111111,嚴禁投入家用垃圾，違者重罰新台幣6000元
內湖區,康寧路,3段60號前,121.6122222,25.07055556,嚴禁投入家用垃圾，違者重罰新台幣6000元
內湖區,康寧路,3段72號,121.6116667,25.07055556,嚴禁投入家用垃圾，違者重罰新台幣6000元
內湖區,康寧路,3段72號,121.6116667,25.07,嚴禁投入家用垃圾，違者重罰新台幣6000元
內湖區,康寧路,3段220號前站牌,121.6111111,25.06722222,嚴禁投入家用垃圾，違者重罰新台幣6000元
內湖區,康寧路,3段220號前站牌,121.6116667,25.06777778,嚴禁投入家用垃圾，違者重罰新台幣6000元
內湖區,安康路,內湖焚化廠內,121.6063889,25.06361111,嚴禁投入家用垃圾，違者重罰新台幣6000元
內湖區,康寧路,3段225號中油加油站,121.6094444,25.065,嚴禁投入家用垃圾，違者重罰新台幣6000元
內湖區,東湖路,80號,121.6144444,25.06888889,嚴禁投入家用垃圾，違者重罰新台幣6000元
內湖區,東湖路,86號,121.6147222,25.06888889,嚴禁投入家用垃圾，違者重罰新台幣6000元
內湖區,東湖路,126號,121.6161111,25.06861111,嚴禁投入家用垃圾，違者重罰新台幣6000元
內湖區,港墘路,151號公車站牌,121.5761111,25.0775,嚴禁投入家用垃圾，違者重罰新台幣6000元
內湖區,內湖路,1段550號左側(港墘派出所旁),121.5766667,25.07888889,嚴禁投入家用垃圾，違者重罰新台幣6000元
內湖區,內湖路,1段550號港墘派出所邊,121.5766667,25.07916667,嚴禁投入家用垃圾，違者重罰新台幣6000元
內湖區,內湖路,1段594號西湖圖書館,121.5775,25.07916667,嚴禁投入家用垃圾，違者重罰新台幣6000元
內湖區,內湖路,1段596號,121.5777778,25.07916667,嚴禁投入家用垃圾，違者重罰新台幣6000元
內湖區,內湖路,1段606號公車站牌右側,121.5786111,25.07861111,嚴禁投入家用垃圾，違者重罰新台幣6000元
內湖區,文德路 ,91號右側公園旁,121.5830556,25.07888889,嚴禁投入家用垃圾，違者重罰新台幣6000元
內湖區,文德路,25號公車站牌,121.5808333,25.07861111,嚴禁投入家用垃圾，違者重罰新台幣6000元
內湖區,內湖路,2段與文德路口小公園旁,121.58,25.07888889,嚴禁投入家用垃圾，違者重罰新台幣6000元
內湖區,內湖路,1段741號左側,121.5786111,25.07888889,嚴禁投入家用垃圾，違者重罰新台幣6000元
內湖區,內湖路,1段729號公車站牌,121.5786111,25.07888889,嚴禁投入家用垃圾，違者重罰新台幣6000元
內湖區,內湖路,1段727號公車站牌,121.5780556,25.07888889,嚴禁投入家用垃圾，違者重罰新台幣6000元
內湖區,內湖路,1段669號,121.5761111,25.08,嚴禁投入家用垃圾，違者重罰新台幣6000元
內湖區,內湖路,1段677號內湖高工公車站牌,121.5763889,25.08,嚴禁投入家用垃圾，違者重罰新台幣6000元
內湖區,內湖路,1段429號公車站牌,121.5713889,25.08111111,嚴禁投入家用垃圾，違者重罰新台幣6000元
內湖區,內湖路,1段421號公車站牌,121.5713889,25.08111111,嚴禁投入家用垃圾，違者重罰新台幣6000元
內湖區,內湖路,1段367號公車站牌,121.5694444,25.08166667,嚴禁投入家用垃圾，違者重罰新台幣6000元
內湖區,內湖路,1段285號西湖捷運站左側,121.5669444,25.08194444,嚴禁投入家用垃圾，違者重罰新台幣6000元
內湖區,內湖路,1段285號西湖捷運站右側,121.5663889,25.0825,嚴禁投入家用垃圾，違者重罰新台幣6000元
內湖區,內湖路,1段277號公車站牌,121.5658333,25.08194444,嚴禁投入家用垃圾，違者重罰新台幣6000元
內湖區,內湖路,1段239號,121.5655556,25.08222222,嚴禁投入家用垃圾，違者重罰新台幣6000元
內湖區,內湖路,1段217巷口西康公園出入口左側,121.5641667,25.08361111,嚴禁投入家用垃圾，違者重罰新台幣6000元
內湖區,內湖路,1段217巷口公車站牌右側,121.5641667,25.08305556,嚴禁投入家用垃圾，違者重罰新台幣6000元
內湖區,內湖路,1段155號前,121.5630556,25.08333333,嚴禁投入家用垃圾，違者重罰新台幣6000元
內湖區,內湖路,1段99號公車站牌,121.5613889,25.08444444,嚴禁投入家用垃圾，違者重罰新台幣6000元
內湖區,環山路,1段27號公車站牌左側,121.5652778,25.08583333,嚴禁投入家用垃圾，違者重罰新台幣6000元
內湖區,環山路,1段27號公車站牌右側,121.5655556,25.08583333,嚴禁投入家用垃圾，違者重罰新台幣6000元
內湖區,環山路,2段65號對面公車站牌,121.5741667,25.08527778,嚴禁投入家用垃圾，違者重罰新台幣6000元
內湖區,民權東路,6段25號對面時報廣場站牌,121.5813889,25.06861111,嚴禁投入家用垃圾，違者重罰新台幣6000元
內湖區,瑞光路,110號公館山站牌,121.5808333,25.07194444,嚴禁投入家用垃圾，違者重罰新台幣6000元
內湖區,民權東路,6段12號保捷興小型汽車代檢廠,121.5761111,25.06611111,嚴禁投入家用垃圾，違者重罰新台幣6000元
內湖區,民權東路,6段30號現代汽車,121.5805556,25.0675,嚴禁投入家用垃圾，違者重罰新台幣6000元
內湖區,行愛路,186號第5號停車格,121.5791667,25.06527778,嚴禁投入家用垃圾，違者重罰新台幣6000元
內湖區,行愛路,128號7-11便利商店前,121.5802778,25.06388889,嚴禁投入家用垃圾，違者重罰新台幣6000元
內湖區,行愛路,77巷16號,121.5819444,25.06305556,嚴禁投入家用垃圾，違者重罰新台幣6000元
內湖區,舊宗路,1段188號大潤發二館,121.5772222,25.06333333,嚴禁投入家用垃圾，違者重罰新台幣6000元
內湖區,舊宗路,1段130號統一皇帽汽車百貨店前,121.5938889,25.06305556,嚴禁投入家用垃圾，違者重罰新台幣6000元
內湖區,舊宗路,1段128號大潤發一館前1,121.5786111,25.06027778,嚴禁投入家用垃圾，違者重罰新台幣6000元
內湖區,舊宗路,1段128號大潤發一館前2,121.5788889,25.06055556,嚴禁投入家用垃圾，違者重罰新台幣6000元
內湖區,新湖三路,內湖花市,121.5755556,25.06277778,嚴禁投入家用垃圾，違者重罰新台幣6000元
內湖區,新湖三路,內湖花市,121.5744444,25.0625,嚴禁投入家用垃圾，違者重罰新台幣6000元
內湖區,新湖三路,內湖花市,121.5744444,25.0625,嚴禁投入家用垃圾，違者重罰新台幣6000元
內湖區,民善街,內湖花市,121.5744444,25.06388889,嚴禁投入家用垃圾，違者重罰新台幣6000元
內湖區,瑞光路,321號台北花市站牌,121.5733333,25.07722222,嚴禁投入家用垃圾，違者重罰新台幣6000元
內湖區,瑞光路,581號仁寶大樓站牌,121.5683333,25.07777778,嚴禁投入家用垃圾，違者重罰新台幣6000元
內湖區,瑞光路,639號竹城大廈,121.5661111,25.08055556,嚴禁投入家用垃圾，違者重罰新台幣6000元
內湖區,基湖路,8號內湖基湖路口站牌,121.5652778,25.08194444,嚴禁投入家用垃圾，違者重罰新台幣6000元
內湖區,內湖路,1段66號北勢湖公園,121.5616667,25.08416667,嚴禁投入家用垃圾，違者重罰新台幣6000元
內湖區,內湖路,1段126號治盤新村站牌,121.5638889,25.08305556,嚴禁投入家用垃圾，違者重罰新台幣6000元
內湖區,內湖路,1段246號西湖市場站牌,121.5661111,25.0825,嚴禁投入家用垃圾，違者重罰新台幣6000元
內湖區,內湖路,1段怒德家商站牌,121.5691667,25.08222222,嚴禁投入家用垃圾，違者重罰新台幣6000元
內湖區,內湖路,1段372號麗山街站牌1,121.5719444,25.08111111,嚴禁投入家用垃圾，違者重罰新台幣6000元
內湖區,內湖路,1段372號麗山街站牌2,121.5719444,25.08111111,嚴禁投入家用垃圾，違者重罰新台幣6000元
內湖區,內湖路,1段內湖捷運港墘站第2號側門,121.5763889,25.08027778,嚴禁投入家用垃圾，違者重罰新台幣6000元
內湖區,內湖路,1段520號港墘路口旁,121.5744444,25.07916667,嚴禁投入家用垃圾，違者重罰新台幣6000元
