{ "results":[
  {
    "region": "士林區",
    "road": "延平北路",
    "address": "七段3號前(公車亭旁)",
    "location": {  
 "__type": "GeoPoint",  
 "longitude": 121.4975,
    "latitude": 25.09416667},
    "memo": "嚴禁投入家用垃圾，違者重罰新台幣6000元"
  },
  {
    "region": "士林區",
    "road": "延平北路",
    "address": "九段尾島頭公園路燈107號樓梯口旁",
    "location": {  
 "__type": "GeoPoint",  
 "longitude": 121.4666667,
    "latitude": 25.11},
    "memo": "嚴禁投入家用垃圾，違者重罰新台幣6000元"
  },
  {
    "region": "士林區",
    "road": "延平北路",
    "address": "六段308號右側邊近社中街尾",
    "location": {  
 "__type": "GeoPoint",  
 "longitude": 121.5019444,
    "latitude": 25.09027778},
    "memo": "嚴禁投入家用垃圾，違者重罰新台幣6000元"
  },
  {
    "region": "士林區",
    "road": "延平北路",
    "address": "九段尾島頭公園路燈109號樓梯口旁",
    "location": {  
 "__type": "GeoPoint",  
 "longitude": 121.4663889,
    "latitude": 25.10888889},
    "memo": "嚴禁投入家用垃圾，違者重罰新台幣6000元"
  },
  {
    "region": "士林區",
    "road": "延平北路",
    "address": "六段308號(社子國小)側門邊",
    "location": {  
 "__type": "GeoPoint",  
 "longitude": 121.5033333,
    "latitude": 25.08972222},
    "memo": "嚴禁投入家用垃圾，違者重罰新台幣6000元"
  },
  {
    "region": "士林區",
    "road": "延平北路",
    "address": "六段308號(社子國小右側邊)",
    "location": {  
 "__type": "GeoPoint",  
 "longitude": 121.5025,
    "latitude": 25.09},
    "memo": "嚴禁投入家用垃圾，違者重罰新台幣6000元"
  },
  {
    "region": "士林區",
    "road": "延平北路",
    "address": "六段308號(社子國小左側邊)",
    "location": {  
 "__type": "GeoPoint",  
 "longitude": 121.5030556,
    "latitude": 25.08972222},
    "memo": "嚴禁投入家用垃圾，違者重罰新台幣6000元"
  },
  {
    "region": "士林區",
    "road": "延平北路",
    "address": "六段308號(社子國小大門對面)",
    "location": {  
 "__type": "GeoPoint",  
 "longitude": 121.5027778,
    "latitude": 25.08972222},
    "memo": "嚴禁投入家用垃圾，違者重罰新台幣6000元"
  },
  {
    "region": "士林區",
    "road": "延平北路",
    "address": "六段308號(社子國小大門對面公車亭旁)",
    "location": {  
 "__type": "GeoPoint",  
 "longitude": 121.5033333,
    "latitude": 25.08944444},
    "memo": "嚴禁投入家用垃圾，違者重罰新台幣6000元"
  },
  {
    "region": "士林區",
    "road": "延平北路",
    "address": "六段458號(公車亭旁)",
    "location": {  
 "__type": "GeoPoint",  
 "longitude": 121.4991667,
    "latitude": 25.09277778},
    "memo": "嚴禁投入家用垃圾，違者重罰新台幣6000元"
  },
  {
    "region": "士林區",
    "road": "延平北路",
    "address": "七段250號福安國中(左側近臨江園)",
    "location": {  
 "__type": "GeoPoint",  
 "longitude": 121.4886111,
    "latitude": 25.10222222},
    "memo": "嚴禁投入家用垃圾，違者重罰新台幣6000元"
  },
  {
    "region": "士林區",
    "road": "延平北路",
    "address": "七段250號福安國中(左側)",
    "location": {  
 "__type": "GeoPoint",  
 "longitude": 121.4880556,
    "latitude": 25.10277778},
    "memo": "嚴禁投入家用垃圾，違者重罰新台幣6000元"
  },
  {
    "region": "士林區",
    "road": "延平北路",
    "address": "七段250號福安國中(右側)",
    "location": {  
 "__type": "GeoPoint",  
 "longitude": 121.4877778,
    "latitude": 25.10305556},
    "memo": "嚴禁投入家用垃圾，違者重罰新台幣6000元"
  },
  {
    "region": "士林區",
    "road": "延平北路",
    "address": "七段250號福安國中(右側近八段2巷口)",
    "location": {  
 "__type": "GeoPoint",  
 "longitude": 121.4872222,
    "latitude": 25.10333333},
    "memo": "嚴禁投入家用垃圾，違者重罰新台幣6000元"
  },
  {
    "region": "士林區",
    "road": "延平北路",
    "address": "八段262巷口對面(公車亭內)",
    "location": {  
 "__type": "GeoPoint",  
 "longitude": 121.4786111,
    "latitude": 25.10583333},
    "memo": "嚴禁投入家用垃圾，違者重罰新台幣6000元"
  },
  {
    "region": "士林區",
    "road": "延平北路",
    "address": "八段262巷口對面(公車亭內)",
    "location": {  
 "__type": "GeoPoint",  
 "longitude": 121.4730556,
    "latitude": 25.10611111},
    "memo": "嚴禁投入家用垃圾，違者重罰新台幣6000元"
  },
  {
    "region": "士林區",
    "road": "延平北路",
    "address": "六段308號(社子國小大門左側對面)",
    "location": {  
 "__type": "GeoPoint",  
 "longitude": 121.5030556,
    "latitude": 25.08944444},
    "memo": "嚴禁投入家用垃圾，違者重罰新台幣6000元"
  },
  {
    "region": "士林區",
    "road": "重慶北路",
    "address": "四段125號加油站",
    "location": {  
 "__type": "GeoPoint",  
 "longitude": 121.5119444,
    "latitude": 25.08277778},
    "memo": "嚴禁投入家用垃圾，違者重罰新台幣6000元"
  },
  {
    "region": "士林區",
    "road": "重慶北路",
    "address": "四段141號加油站",
    "location": {  
 "__type": "GeoPoint",  
 "longitude": 121.5122222,
    "latitude": 25.08305556},
    "memo": "嚴禁投入家用垃圾，違者重罰新台幣6000元"
  },
  {
    "region": "士林區",
    "road": "重慶北路",
    "address": "四段97號",
    "location": {  
 "__type": "GeoPoint",  
 "longitude": 121.5127778,
    "latitude": 25.08194444},
    "memo": "嚴禁投入家用垃圾，違者重罰新台幣6000元"
  },
  {
    "region": "士林區",
    "road": "重慶北路",
    "address": "四段60號",
    "location": {  
 "__type": "GeoPoint",  
 "longitude": 121.5127778,
    "latitude": 25.08166667},
    "memo": "嚴禁投入家用垃圾，違者重罰新台幣6000元"
  },
  {
    "region": "士林區",
    "road": "重慶北路",
    "address": "四段54號",
    "location": {  
 "__type": "GeoPoint",  
 "longitude": 121.5133333,
    "latitude": 25.08138889},
    "memo": "嚴禁投入家用垃圾，違者重罰新台幣6000元"
  },
  {
    "region": "士林區",
    "road": "重慶北路",
    "address": "四段202號加油站",
    "location": {  
 "__type": "GeoPoint",  
 "longitude": 121.5116667,
    "latitude": 25.085},
    "memo": "嚴禁投入家用垃圾，違者重罰新台幣6000元"
  },
  {
    "region": "士林區",
    "road": "重慶北路",
    "address": "四段202號加油站",
    "location": {  
 "__type": "GeoPoint",  
 "longitude": 121.5116667,
    "latitude": 25.085},
    "memo": "嚴禁投入家用垃圾，違者重罰新台幣6000元"
  },
  {
    "region": "士林區",
    "road": "中正路",
    "address": "580號",
    "location": {  
 "__type": "GeoPoint",  
 "longitude": 121.5102778,
    "latitude": 25.08722222},
    "memo": "嚴禁投入家用垃圾，違者重罰新台幣6000元"
  },
  {
    "region": "士林區",
    "road": "延平北路",
    "address": "5段271號",
    "location": {  
 "__type": "GeoPoint",  
 "longitude": 121.5097222,
    "latitude": 25.08527778},
    "memo": "嚴禁投入家用垃圾，違者重罰新台幣6000元"
  },
  {
    "region": "士林區",
    "road": "中山北路",
    "address": "六段415號(蘭興2號公園)",
    "location": {  
 "__type": "GeoPoint",  
 "longitude": 121.5266667,
    "latitude": 25.11305556},
    "memo": "嚴禁投入家用垃圾，違者重罰新台幣6000元"
  },
  {
    "region": "士林區",
    "road": "中山北路",
    "address": "六段392號(士東國小)",
    "location": {  
 "__type": "GeoPoint",  
 "longitude": 121.5266667,
    "latitude": 25.11333333},
    "memo": "嚴禁投入家用垃圾，違者重罰新台幣6000元"
  },
  {
    "region": "士林區",
    "road": "中山北路",
    "address": "七段18號(台銀)",
    "location": {  
 "__type": "GeoPoint",  
 "longitude": 121.5305556,
    "latitude": 25.11916667},
    "memo": "嚴禁投入家用垃圾，違者重罰新台幣6000元"
  },
  {
    "region": "士林區",
    "road": "中山北路",
    "address": "七段34號",
    "location": {  
 "__type": "GeoPoint",  
 "longitude": 121.5311111,
    "latitude": 25.12},
    "memo": "嚴禁投入家用垃圾，違者重罰新台幣6000元"
  },
  {
    "region": "士林區",
    "road": "中山北路",
    "address": "七段60號",
    "location": {  
 "__type": "GeoPoint",  
 "longitude": 121.5311111,
    "latitude": 25.12083333},
    "memo": "嚴禁投入家用垃圾，違者重罰新台幣6000元"
  },
  {
    "region": "士林區",
    "road": "中山北路",
    "address": "七段132號(郵局)",
    "location": {  
 "__type": "GeoPoint",  
 "longitude": 121.5319444,
    "latitude": 25.12277778},
    "memo": "嚴禁投入家用垃圾，違者重罰新台幣6000元"
  },
  {
    "region": "士林區",
    "road": "中山北路",
    "address": "七段186號",
    "location": {  
 "__type": "GeoPoint",  
 "longitude": 121.5330556,
    "latitude": 25.12472222},
    "memo": "嚴禁投入家用垃圾，違者重罰新台幣6000元"
  },
  {
    "region": "士林區",
    "road": "中山北路",
    "address": "七段230之1號 對面",
    "location": {  
 "__type": "GeoPoint",  
 "longitude": 121.5336111,
    "latitude": 25.1275},
    "memo": "嚴禁投入家用垃圾，違者重罰新台幣6000元"
  },
  {
    "region": "士林區",
    "road": "中山北路",
    "address": "七段171號",
    "location": {  
 "__type": "GeoPoint",  
 "longitude": 121.5327778,
    "latitude": 25.12416667},
    "memo": "嚴禁投入家用垃圾，違者重罰新台幣6000元"
  },
  {
    "region": "士林區",
    "road": "中山北路",
    "address": "七段141巷43號 (下方公園旁)",
    "location": {  
 "__type": "GeoPoint",  
 "longitude": 121.53,
    "latitude": 25.12444444},
    "memo": "嚴禁投入家用垃圾，違者重罰新台幣6000元"
  },
  {
    "region": "士林區",
    "road": "中山北路",
    "address": "七段141巷43號 (體惠幼稚園旁)",
    "location": {  
 "__type": "GeoPoint",  
 "longitude": 121.5302778,
    "latitude": 25.125},
    "memo": "嚴禁投入家用垃圾，違者重罰新台幣6000元"
  },
  {
    "region": "士林區",
    "road": "中山北路",
    "address": "七段123號前",
    "location": {  
 "__type": "GeoPoint",  
 "longitude": 121.5319444,
    "latitude": 25.12277778},
    "memo": "嚴禁投入家用垃圾，違者重罰新台幣6000元"
  },
  {
    "region": "士林區",
    "road": "中山北路",
    "address": "七段71號 (富邦建設)",
    "location": {  
 "__type": "GeoPoint",  
 "longitude": 121.5311111,
    "latitude": 25.12111111},
    "memo": "嚴禁投入家用垃圾，違者重罰新台幣6000元"
  },
  {
    "region": "士林區",
    "road": "中山北路",
    "address": "七段45號",
    "location": {  
 "__type": "GeoPoint",  
 "longitude": 121.5311111,
    "latitude": 25.12},
    "memo": "嚴禁投入家用垃圾，違者重罰新台幣6000元"
  },
  {
    "region": "士林區",
    "road": "天母西路",
    "address": "3號前",
    "location": {  
 "__type": "GeoPoint",  
 "longitude": 121.5297222,
    "latitude": 25.11861111},
    "memo": "嚴禁投入家用垃圾，違者重罰新台幣6000元"
  },
  {
    "region": "士林區",
    "road": "天母西路",
    "address": "73號",
    "location": {  
 "__type": "GeoPoint",  
 "longitude": 121.5252778,
    "latitude": 25.11833333},
    "memo": "嚴禁投入家用垃圾，違者重罰新台幣6000元"
  },
  {
    "region": "士林區",
    "road": "天母西路",
    "address": "46之3號",
    "location": {  
 "__type": "GeoPoint",  
 "longitude": 121.5255556,
    "latitude": 25.11861111},
    "memo": "嚴禁投入家用垃圾，違者重罰新台幣6000元"
  },
  {
    "region": "士林區",
    "road": "天母北路",
    "address": "61號",
    "location": {  
 "__type": "GeoPoint",  
 "longitude": 121.5266667,
    "latitude": 25.12166667},
    "memo": "嚴禁投入家用垃圾，違者重罰新台幣6000元"
  },
  {
    "region": "士林區",
    "road": "天母北路",
    "address": "68之1號",
    "location": {  
 "__type": "GeoPoint",  
 "longitude": 121.5266667,
    "latitude": 25.12277778},
    "memo": "嚴禁投入家用垃圾，違者重罰新台幣6000元"
  },
  {
    "region": "士林區",
    "road": "天母東路",
    "address": "6之2號(三玉宮)",
    "location": {  
 "__type": "GeoPoint",  
 "longitude": 121.5311111,
    "latitude": 25.11833333},
    "memo": "嚴禁投入家用垃圾，違者重罰新台幣6000元"
  },
  {
    "region": "士林區",
    "road": "天母東路",
    "address": "46號",
    "location": {  
 "__type": "GeoPoint",  
 "longitude": 121.5333333,
    "latitude": 25.11833333},
    "memo": "嚴禁投入家用垃圾，違者重罰新台幣6000元"
  },
  {
    "region": "士林區",
    "road": "天母東路",
    "address": "68號 (新光三越) (一)",
    "location": {  
 "__type": "GeoPoint",  
 "longitude": 121.5336111,
    "latitude": 25.11805556},
    "memo": "嚴禁投入家用垃圾，違者重罰新台幣6000元"
  },
  {
    "region": "士林區",
    "road": "天母東路",
    "address": "68號 (新光三越) (二)",
    "location": {  
 "__type": "GeoPoint",  
 "longitude": 121.5341667,
    "latitude": 25.11805556},
    "memo": "嚴禁投入家用垃圾，違者重罰新台幣6000元"
  },
  {
    "region": "士林區",
    "road": "天母東路",
    "address": "111號",
    "location": {  
 "__type": "GeoPoint",  
 "longitude": 121.5369444,
    "latitude": 25.11833333},
    "memo": "嚴禁投入家用垃圾，違者重罰新台幣6000元"
  },
  {
    "region": "士林區",
    "road": "天母東路",
    "address": "59號邊(近57-1號旁)",
    "location": {  
 "__type": "GeoPoint",  
 "longitude": 121.5336111,
    "latitude": 25.11777778},
    "memo": "嚴禁投入家用垃圾，違者重罰新台幣6000元"
  },
  {
    "region": "士林區",
    "road": "天母東路",
    "address": "1之5號",
    "location": {  
 "__type": "GeoPoint",  
 "longitude": 121.5311111,
    "latitude": 25.11833333},
    "memo": "嚴禁投入家用垃圾，違者重罰新台幣6000元"
  },
  {
    "region": "士林區",
    "road": "忠誠路",
    "address": "二段206號(新光三越)(三)",
    "location": {  
 "__type": "GeoPoint",  
 "longitude": 121.5344444,
    "latitude": 25.11805556},
    "memo": "嚴禁投入家用垃圾，違者重罰新台幣6000元"
  },
  {
    "region": "士林區",
    "road": "忠誠路",
    "address": "二段202號(新光三越)(四)",
    "location": {  
 "__type": "GeoPoint",  
 "longitude": 121.5341667,
    "latitude": 25.15055556},
    "memo": "嚴禁投入家用垃圾，違者重罰新台幣6000元"
  },
  {
    "region": "士林區",
    "road": "忠誠路",
    "address": "二段180號(誠品)",
    "location": {  
 "__type": "GeoPoint",  
 "longitude": 121.5336111,
    "latitude": 25.11611111},
    "memo": "嚴禁投入家用垃圾，違者重罰新台幣6000元"
  },
  {
    "region": "士林區",
    "road": "忠誠路",
    "address": "二段128-1號",
    "location": {  
 "__type": "GeoPoint",  
 "longitude": 121.5322222,
    "latitude": 25.11388889},
    "memo": "嚴禁投入家用垃圾，違者重罰新台幣6000元"
  },
  {
    "region": "士林區",
    "road": "忠誠路",
    "address": "二段96號(統一證卷)",
    "location": {  
 "__type": "GeoPoint",  
 "longitude": 121.5311111,
    "latitude": 25.11305556},
    "memo": "嚴禁投入家用垃圾，違者重罰新台幣6000元"
  },
  {
    "region": "士林區",
    "road": "忠誠路",
    "address": "二段78號",
    "location": {  
 "__type": "GeoPoint",  
 "longitude": 121.5311111,
    "latitude": 25.11222222},
    "memo": "嚴禁投入家用垃圾，違者重罰新台幣6000元"
  },
  {
    "region": "士林區",
    "road": "忠誠路",
    "address": "二段56號",
    "location": {  
 "__type": "GeoPoint",  
 "longitude": 121.5305556,
    "latitude": 25.11111111},
    "memo": "嚴禁投入家用垃圾，違者重罰新台幣6000元"
  },
  {
    "region": "士林區",
    "road": "忠誠路",
    "address": "二段46之1號",
    "location": {  
 "__type": "GeoPoint",  
 "longitude": 121.5305556,
    "latitude": 25.11027778},
    "memo": "嚴禁投入家用垃圾，違者重罰新台幣6000元"
  },
  {
    "region": "士林區",
    "road": "忠誠路",
    "address": "二段(蘭雅公園前)",
    "location": {  
 "__type": "GeoPoint",  
 "longitude": 121.5305556,
    "latitude": 25.10972222},
    "memo": "嚴禁投入家用垃圾，違者重罰新台幣6000元"
  },
  {
    "region": "士林區",
    "road": "忠誠路",
    "address": "二段6號",
    "location": {  
 "__type": "GeoPoint",  
 "longitude": 121.5302778,
    "latitude": 25.10861111},
    "memo": "嚴禁投入家用垃圾，違者重罰新台幣6000元"
  },
  {
    "region": "士林區",
    "road": "忠誠路",
    "address": "二段27號",
    "location": {  
 "__type": "GeoPoint",  
 "longitude": 121.5305556,
    "latitude": 25.10972222},
    "memo": "嚴禁投入家用垃圾，違者重罰新台幣6000元"
  },
  {
    "region": "士林區",
    "road": "忠誠路",
    "address": "二段51號(蘭雅國中)",
    "location": {  
 "__type": "GeoPoint",  
 "longitude": 121.5305556,
    "latitude": 25.11027778},
    "memo": "嚴禁投入家用垃圾，違者重罰新台幣6000元"
  },
  {
    "region": "士林區",
    "road": "忠誠路",
    "address": "二段77號(棒球場)(一) 118巷口對面",
    "location": {  
 "__type": "GeoPoint",  
 "longitude": 121.5316667,
    "latitude": 25.11361111},
    "memo": "嚴禁投入家用垃圾，違者重罰新台幣6000元"
  },
  {
    "region": "士林區",
    "road": "忠誠路",
    "address": "二段77號(棒球場)(二) 128號對面",
    "location": {  
 "__type": "GeoPoint",  
 "longitude": 121.5322222,
    "latitude": 25.11388889},
    "memo": "嚴禁投入家用垃圾，違者重罰新台幣6000元"
  },
  {
    "region": "士林區",
    "road": "忠誠路",
    "address": "(運動公園)(一)二段162號對面",
    "location": {  
 "__type": "GeoPoint",  
 "longitude": 121.5330556,
    "latitude": 25.11527778},
    "memo": "嚴禁投入家用垃圾，違者重罰新台幣6000元"
  },
  {
    "region": "士林區",
    "road": "忠誠路",
    "address": "(運動公園)(二)二段178巷口對面",
    "location": {  
 "__type": "GeoPoint",  
 "longitude": 121.5338889,
    "latitude": 25.11583333},
    "memo": "嚴禁投入家用垃圾，違者重罰新台幣6000元"
  },
  {
    "region": "士林區",
    "road": "忠誠路",
    "address": "二段207巷1號(啟明學校)旁(二)",
    "location": {  
 "__type": "GeoPoint",  
 "longitude": 121.5347222,
    "latitude": 25.11722222},
    "memo": "嚴禁投入家用垃圾，違者重罰新台幣6000元"
  },
  {
    "region": "士林區",
    "road": "東山路",
    "address": "114號",
    "location": {  
 "__type": "GeoPoint",  
 "longitude": 121.5394444,
    "latitude": 25.11305556},
    "memo": "嚴禁投入家用垃圾，違者重罰新台幣6000元"
  },
  {
    "region": "士林區",
    "road": "東山路",
    "address": "底 (忠孝新村站牌 旁)",
    "location": {  
 "__type": "GeoPoint",  
 "longitude": 121.5397222,
    "latitude": 25.11111111},
    "memo": "嚴禁投入家用垃圾，違者重罰新台幣6000元"
  },
  {
    "region": "士林區",
    "road": "東山路",
    "address": "與士東路352巷口 職訓(二)站牌",
    "location": {  
 "__type": "GeoPoint",  
 "longitude": 121.5394444,
    "latitude": 25.11361111},
    "memo": "嚴禁投入家用垃圾，違者重罰新台幣6000元"
  },
  {
    "region": "士林區",
    "road": "東山路",
    "address": "27號(光華巴士總站)",
    "location": {  
 "__type": "GeoPoint",  
 "longitude": 121.5391667,
    "latitude": 25.11583333},
    "memo": "嚴禁投入家用垃圾，違者重罰新台幣6000元"
  },
  {
    "region": "士林區",
    "road": "士東路",
    "address": "264號對面",
    "location": {  
 "__type": "GeoPoint",  
 "longitude": 121.5363889,
    "latitude": 25.11333333},
    "memo": "嚴禁投入家用垃圾，違者重罰新台幣6000元"
  },
  {
    "region": "士林區",
    "road": "士東路",
    "address": "238號對面",
    "location": {  
 "__type": "GeoPoint",  
 "longitude": 121.535,
    "latitude": 25.11305556},
    "memo": "嚴禁投入家用垃圾，違者重罰新台幣6000元"
  },
  {
    "region": "士林區",
    "road": "士東路",
    "address": "216號對面棒球場(一)",
    "location": {  
 "__type": "GeoPoint",  
 "longitude": 121.5341667,
    "latitude": 25.11277778},
    "memo": "嚴禁投入家用垃圾，違者重罰新台幣6000元"
  },
  {
    "region": "士林區",
    "road": "士東路",
    "address": "180號(台電)",
    "location": {  
 "__type": "GeoPoint",  
 "longitude": 121.5322222,
    "latitude": 25.1125},
    "memo": "嚴禁投入家用垃圾，違者重罰新台幣6000元"
  },
  {
    "region": "士林區",
    "road": "士東路",
    "address": "190號(法院正門200巷)(一)",
    "location": {  
 "__type": "GeoPoint",  
 "longitude": 121.5336111,
    "latitude": 25.11194444},
    "memo": "嚴禁投入家用垃圾，違者重罰新台幣6000元"
  },
  {
    "region": "士林區",
    "road": "士東路",
    "address": "190號(法院)(一)",
    "location": {  
 "__type": "GeoPoint",  
 "longitude": 121.5327778,
    "latitude": 25.11138889},
    "memo": "嚴禁投入家用垃圾，違者重罰新台幣6000元"
  },
  {
    "region": "士林區",
    "road": "中山北路",
    "address": "六段431號",
    "location": {  
 "__type": "GeoPoint",  
 "longitude": 121.5272222,
    "latitude": 25.11416667},
    "memo": "嚴禁投入家用垃圾，違者重罰新台幣6000元"
  },
  {
    "region": "士林區",
    "road": "中山北路",
    "address": "六段420號",
    "location": {  
 "__type": "GeoPoint",  
 "longitude": 121.5269444,
    "latitude": 25.11388889},
    "memo": "嚴禁投入家用垃圾，違者重罰新台幣6000元"
  },
  {
    "region": "士林區",
    "road": "中山北路",
    "address": "六段750號",
    "location": {  
 "__type": "GeoPoint",  
 "longitude": 121.5280556,
    "latitude": 25.11583333},
    "memo": "嚴禁投入家用垃圾，違者重罰新台幣6000元"
  },
  {
    "region": "士林區",
    "road": "中山北路",
    "address": "六段800號(美國學校)(二)",
    "location": {  
 "__type": "GeoPoint",  
 "longitude": 121.5291667,
    "latitude": 25.11694444},
    "memo": "嚴禁投入家用垃圾，違者重罰新台幣6000元"
  },
  {
    "region": "士林區",
    "road": "中山北路",
    "address": "六段800號(美國學校)(四)",
    "location": {  
 "__type": "GeoPoint",  
 "longitude": 121.5294444,
    "latitude": 25.1175},
    "memo": "嚴禁投入家用垃圾，違者重罰新台幣6000元"
  },
  {
    "region": "士林區",
    "road": "中山北路",
    "address": "七段29號",
    "location": {  
 "__type": "GeoPoint",  
 "longitude": 121.5305556,
    "latitude": 25.11944444},
    "memo": "嚴禁投入家用垃圾，違者重罰新台幣6000元"
  },
  {
    "region": "士林區",
    "road": "中山北路",
    "address": "六段785號(日本學校)(一)",
    "location": {  
 "__type": "GeoPoint",  
 "longitude": 121.5297222,
    "latitude": 25.11833333},
    "memo": "嚴禁投入家用垃圾，違者重罰新台幣6000元"
  },
  {
    "region": "士林區",
    "road": "中山北路",
    "address": "六段785號(日本學校)(三)",
    "location": {  
 "__type": "GeoPoint",  
 "longitude": 121.5291667,
    "latitude": 25.11722222},
    "memo": "嚴禁投入家用垃圾，違者重罰新台幣6000元"
  },
  {
    "region": "士林區",
    "road": "中山北路",
    "address": "六段765號",
    "location": {  
 "__type": "GeoPoint",  
 "longitude": 121.5280556,
    "latitude": 25.11583333},
    "memo": "嚴禁投入家用垃圾，違者重罰新台幣6000元"
  },
  {
    "region": "士林區",
    "road": "天母西路",
    "address": "61號",
    "location": {  
 "__type": "GeoPoint",  
 "longitude": 121.5261111,
    "latitude": 25.11861111},
    "memo": "嚴禁投入家用垃圾，違者重罰新台幣6000元"
  },
  {
    "region": "士林區",
    "road": "士東路",
    "address": "180號台電對面",
    "location": {  
 "__type": "GeoPoint",  
 "longitude": 121.5325,
    "latitude": 25.11277778},
    "memo": "嚴禁投入家用垃圾，違者重罰新台幣6000元"
  },
  {
    "region": "士林區",
    "road": "中山北路",
    "address": "劍潭捷運站1號出口對面",
    "location": {  
 "__type": "GeoPoint",  
 "longitude": 121.5302778,
    "latitude": 25.08666667},
    "memo": "嚴禁投入家用垃圾，違者重罰新台幣6000元"
  },
  {
    "region": "士林區",
    "road": "中山北路",
    "address": "劍潭捷運站1號出口對面",
    "location": {  
 "__type": "GeoPoint",  
 "longitude": 121.5302778,
    "latitude": 25.08666667},
    "memo": "嚴禁投入家用垃圾，違者重罰新台幣6000元"
  },
  {
    "region": "士林區",
    "road": "中山北路",
    "address": "劍潭捷運站1號出口對面",
    "location": {  
 "__type": "GeoPoint",  
 "longitude": 121.5302778,
    "latitude": 25.08638889},
    "memo": "嚴禁投入家用垃圾，違者重罰新台幣6000元"
  },
  {
    "region": "士林區",
    "road": "中山北路",
    "address": "劍潭捷運站1號出口對面",
    "location": {  
 "__type": "GeoPoint",  
 "longitude": 121.5302778,
    "latitude": 25.08611111},
    "memo": "嚴禁投入家用垃圾，違者重罰新台幣6000元"
  },
  {
    "region": "士林區",
    "road": "中山北路",
    "address": "劍潭捷運站前",
    "location": {  
 "__type": "GeoPoint",  
 "longitude": 121.5297222,
    "latitude": 25.08611111},
    "memo": "嚴禁投入家用垃圾，違者重罰新台幣6000元"
  },
  {
    "region": "士林區",
    "road": "中山北路",
    "address": "劍潭捷運站前",
    "location": {  
 "__type": "GeoPoint",  
 "longitude": 121.5297222,
    "latitude": 25.08611111},
    "memo": "嚴禁投入家用垃圾，違者重罰新台幣6000元"
  },
  {
    "region": "士林區",
    "road": "中山北路",
    "address": "劍潭捷運站前",
    "location": {  
 "__type": "GeoPoint",  
 "longitude": 121.5305556,
    "latitude": 25.08694444},
    "memo": "嚴禁投入家用垃圾，違者重罰新台幣6000元"
  },
  {
    "region": "士林區",
    "road": "中山北路",
    "address": "劍潭捷運站前",
    "location": {  
 "__type": "GeoPoint",  
 "longitude": 121.5305556,
    "latitude": 25.08694444},
    "memo": "嚴禁投入家用垃圾，違者重罰新台幣6000元"
  },
  {
    "region": "士林區",
    "road": "福德路",
    "address": "士林捷運站2號出口對面",
    "location": {  
 "__type": "GeoPoint",  
 "longitude": 121.5336111,
    "latitude": 25.08805556},
    "memo": "嚴禁投入家用垃圾，違者重罰新台幣6000元"
  },
  {
    "region": "士林區",
    "road": "基河路",
    "address": "3號對面",
    "location": {  
 "__type": "GeoPoint",  
 "longitude": 121.5297222,
    "latitude": 25.08861111},
    "memo": "嚴禁投入家用垃圾，違者重罰新台幣6000元"
  },
  {
    "region": "士林區",
    "road": "基河路",
    "address": "9號對面",
    "location": {  
 "__type": "GeoPoint",  
 "longitude": 121.5297222,
    "latitude": 25.08861111},
    "memo": "嚴禁投入家用垃圾，違者重罰新台幣6000元"
  },
  {
    "region": "士林區",
    "road": "基河路",
    "address": "15號好樂迪對面",
    "location": {  
 "__type": "GeoPoint",  
 "longitude": 121.5288889,
    "latitude": 25.09},
    "memo": "嚴禁投入家用垃圾，違者重罰新台幣6000元"
  },
  {
    "region": "士林區",
    "road": "基河路",
    "address": "15號都會叢林對面",
    "location": {  
 "__type": "GeoPoint",  
 "longitude": 121.5286111,
    "latitude": 25.09055556},
    "memo": "嚴禁投入家用垃圾，違者重罰新台幣6000元"
  },
  {
    "region": "士林區",
    "road": "基河路",
    "address": "99號對面",
    "location": {  
 "__type": "GeoPoint",  
 "longitude": 121.5288889,
    "latitude": 25.09083333},
    "memo": "嚴禁投入家用垃圾，違者重罰新台幣6000元"
  },
  {
    "region": "士林區",
    "road": "基河路",
    "address": "104號",
    "location": {  
 "__type": "GeoPoint",  
 "longitude": 121.5280556,
    "latitude": 25.09138889},
    "memo": "嚴禁投入家用垃圾，違者重罰新台幣6000元"
  },
  {
    "region": "士林區",
    "road": "基河路",
    "address": "114號",
    "location": {  
 "__type": "GeoPoint",  
 "longitude": 121.5280556,
    "latitude": 25.09138889},
    "memo": "嚴禁投入家用垃圾，違者重罰新台幣6000元"
  },
  {
    "region": "士林區",
    "road": "文林路",
    "address": "235號對面",
    "location": {  
 "__type": "GeoPoint",  
 "longitude": 121.5336111,
    "latitude": 25.09555556},
    "memo": "嚴禁投入家用垃圾，違者重罰新台幣6000元"
  },
  {
    "region": "士林區",
    "road": "文林路",
    "address": "235號對面",
    "location": {  
 "__type": "GeoPoint",  
 "longitude": 121.5336111,
    "latitude": 25.09555556},
    "memo": "嚴禁投入家用垃圾，違者重罰新台幣6000元"
  },
  {
    "region": "士林區",
    "road": "文林路",
    "address": "249號",
    "location": {  
 "__type": "GeoPoint",  
 "longitude": 121.5280556,
    "latitude": 25.10194444},
    "memo": "嚴禁投入家用垃圾，違者重罰新台幣6000元"
  },
  {
    "region": "士林區",
    "road": "中正路",
    "address": "288號",
    "location": {  
 "__type": "GeoPoint",  
 "longitude": 121.5263889,
    "latitude": 25.09527778},
    "memo": "嚴禁投入家用垃圾，違者重罰新台幣6000元"
  },
  {
    "region": "士林區",
    "road": "文林路",
    "address": "472號",
    "location": {  
 "__type": "GeoPoint",  
 "longitude": 121.5266667,
    "latitude": 25.095},
    "memo": "嚴禁投入家用垃圾，違者重罰新台幣6000元"
  },
  {
    "region": "士林區",
    "road": "文林路",
    "address": "477號",
    "location": {  
 "__type": "GeoPoint",  
 "longitude": 121.5297222,
    "latitude": 25.10055556},
    "memo": "嚴禁投入家用垃圾，違者重罰新台幣6000元"
  },
  {
    "region": "士林區",
    "road": "文林路",
    "address": "398號對面",
    "location": {  
 "__type": "GeoPoint",  
 "longitude": 121.5302778,
    "latitude": 25.10083333},
    "memo": "嚴禁投入家用垃圾，違者重罰新台幣6000元"
  },
  {
    "region": "士林區",
    "road": "中正路",
    "address": "266號",
    "location": {  
 "__type": "GeoPoint",  
 "longitude": 121.5286111,
    "latitude": 25.1025},
    "memo": "嚴禁投入家用垃圾，違者重罰新台幣6000元"
  },
  {
    "region": "士林區",
    "road": "中正路",
    "address": "316號",
    "location": {  
 "__type": "GeoPoint",  
 "longitude": 121.5291667,
    "latitude": 25.1},
    "memo": "嚴禁投入家用垃圾，違者重罰新台幣6000元"
  },
  {
    "region": "士林區",
    "road": "中正路",
    "address": "408號",
    "location": {  
 "__type": "GeoPoint",  
 "longitude": 121.5277778,
    "latitude": 25.10194444},
    "memo": "嚴禁投入家用垃圾，違者重罰新台幣6000元"
  },
  {
    "region": "士林區",
    "road": "中正路",
    "address": "383號",
    "location": {  
 "__type": "GeoPoint",  
 "longitude": 121.5227778,
    "latitude": 25.10055556},
    "memo": "嚴禁投入家用垃圾，違者重罰新台幣6000元"
  },
  {
    "region": "士林區",
    "road": "中正路",
    "address": "373號",
    "location": {  
 "__type": "GeoPoint",  
 "longitude": 121.5230556,
    "latitude": 25.10083333},
    "memo": "嚴禁投入家用垃圾，違者重罰新台幣6000元"
  },
  {
    "region": "士林區",
    "road": "中正路",
    "address": "385號",
    "location": {  
 "__type": "GeoPoint",  
 "longitude": 121.5247222,
    "latitude": 25.10111111},
    "memo": "嚴禁投入家用垃圾，違者重罰新台幣6000元"
  },
  {
    "region": "士林區",
    "road": "中正路",
    "address": "375號",
    "location": {  
 "__type": "GeoPoint",  
 "longitude": 121.5247222,
    "latitude": 25.10111111},
    "memo": "嚴禁投入家用垃圾，違者重罰新台幣6000元"
  },
  {
    "region": "士林區",
    "road": "中正路",
    "address": "345號",
    "location": {  
 "__type": "GeoPoint",  
 "longitude": 121.525,
    "latitude": 25.10138889},
    "memo": "嚴禁投入家用垃圾，違者重罰新台幣6000元"
  },
  {
    "region": "士林區",
    "road": "中正路",
    "address": "303號",
    "location": {  
 "__type": "GeoPoint",  
 "longitude": 121.5252778,
    "latitude": 25.10166667},
    "memo": "嚴禁投入家用垃圾，違者重罰新台幣6000元"
  },
  {
    "region": "士林區",
    "road": "中正路",
    "address": "289號",
    "location": {  
 "__type": "GeoPoint",  
 "longitude": 121.5286111,
    "latitude": 25.10194444},
    "memo": "嚴禁投入家用垃圾，違者重罰新台幣6000元"
  },
  {
    "region": "士林區",
    "road": "基河路",
    "address": "250號",
    "location": {  
 "__type": "GeoPoint",  
 "longitude": 121.5277778,
    "latitude": 25.09111111},
    "memo": "嚴禁投入家用垃圾，違者重罰新台幣6000元"
  },
  {
    "region": "士林區",
    "road": "中正路",
    "address": "253號",
    "location": {  
 "__type": "GeoPoint",  
 "longitude": 121.5297222,
    "latitude": 25.1025},
    "memo": "嚴禁投入家用垃圾，違者重罰新台幣6000元"
  },
  {
    "region": "士林區",
    "road": "基河路",
    "address": "258號",
    "location": {  
 "__type": "GeoPoint",  
 "longitude": 121.5230556,
    "latitude": 25.09888889},
    "memo": "嚴禁投入家用垃圾，違者重罰新台幣6000元"
  },
  {
    "region": "士林區",
    "road": "基河路",
    "address": "258號",
    "location": {  
 "__type": "GeoPoint",  
 "longitude": 121.5230556,
    "latitude": 25.09722222},
    "memo": "嚴禁投入家用垃圾，違者重罰新台幣6000元"
  },
  {
    "region": "士林區",
    "road": "基河路",
    "address": "250號",
    "location": {  
 "__type": "GeoPoint",  
 "longitude": 121.5233333,
    "latitude": 25.09833333},
    "memo": "嚴禁投入家用垃圾，違者重罰新台幣6000元"
  },
  {
    "region": "士林區",
    "road": "文林路",
    "address": "412號",
    "location": {  
 "__type": "GeoPoint",  
 "longitude": 121.5277778,
    "latitude": 25.09083333},
    "memo": "嚴禁投入家用垃圾，違者重罰新台幣6000元"
  },
  {
    "region": "士林區",
    "road": "基河路",
    "address": "258號",
    "location": {  
 "__type": "GeoPoint",  
 "longitude": 121.5230556,
    "latitude": 25.09888889},
    "memo": "嚴禁投入家用垃圾，違者重罰新台幣6000元"
  },
  {
    "region": "士林區",
    "road": "基河路",
    "address": "258號對面",
    "location": {  
 "__type": "GeoPoint",  
 "longitude": 121.5230556,
    "latitude": 25.09888889},
    "memo": "嚴禁投入家用垃圾，違者重罰新台幣6000元"
  },
  {
    "region": "士林區",
    "road": "小北街",
    "address": "7號對面",
    "location": {  
 "__type": "GeoPoint",  
 "longitude": 121.5327778,
    "latitude": 25.09472222},
    "memo": "嚴禁投入家用垃圾，違者重罰新台幣6000元"
  },
  {
    "region": "士林區",
    "road": "中山北路",
    "address": "五段607號",
    "location": {  
 "__type": "GeoPoint",  
 "longitude": 121.5277778,
    "latitude": 25.09583333},
    "memo": "嚴禁投入家用垃圾，違者重罰新台幣6000元"
  },
  {
    "region": "士林區",
    "road": "中正路",
    "address": "188號",
    "location": {  
 "__type": "GeoPoint",  
 "longitude": 121.5272222,
    "latitude": 25.09555556},
    "memo": "嚴禁投入家用垃圾，違者重罰新台幣6000元"
  },
  {
    "region": "士林區",
    "road": "中正路",
    "address": "243號",
    "location": {  
 "__type": "GeoPoint",  
 "longitude": 121.5258333,
    "latitude": 25.095},
    "memo": "嚴禁投入家用垃圾，違者重罰新台幣6000元"
  },
  {
    "region": "士林區",
    "road": "中正路",
    "address": "243號",
    "location": {  
 "__type": "GeoPoint",  
 "longitude": 121.5258333,
    "latitude": 25.095},
    "memo": "嚴禁投入家用垃圾，違者重罰新台幣6000元"
  },
  {
    "region": "士林區",
    "road": "中正路",
    "address": "243號",
    "location": {  
 "__type": "GeoPoint",  
 "longitude": 121.5258333,
    "latitude": 25.095},
    "memo": "嚴禁投入家用垃圾，違者重罰新台幣6000元"
  },
  {
    "region": "士林區",
    "road": "中山北路",
    "address": "五段511號",
    "location": {  
 "__type": "GeoPoint",  
 "longitude": 121.5283333,
    "latitude": 25.09361111},
    "memo": "嚴禁投入家用垃圾，違者重罰新台幣6000元"
  },
  {
    "region": "士林區",
    "road": "中山北路",
    "address": "五段505號",
    "location": {  
 "__type": "GeoPoint",  
 "longitude": 121.5277778,
    "latitude": 25.09361111},
    "memo": "嚴禁投入家用垃圾，違者重罰新台幣6000元"
  },
  {
    "region": "士林區",
    "road": "中山北路",
    "address": "五段495號",
    "location": {  
 "__type": "GeoPoint",  
 "longitude": 121.5277778,
    "latitude": 25.09277778},
    "memo": "嚴禁投入家用垃圾，違者重罰新台幣6000元"
  },
  {
    "region": "士林區",
    "road": "中山北路",
    "address": "五段459號",
    "location": {  
 "__type": "GeoPoint",  
 "longitude": 121.5275,
    "latitude": 25.09166667},
    "memo": "嚴禁投入家用垃圾，違者重罰新台幣6000元"
  },
  {
    "region": "士林區",
    "road": "中山北路",
    "address": "五段453號",
    "location": {  
 "__type": "GeoPoint",  
 "longitude": 121.5275,
    "latitude": 25.09138889},
    "memo": "嚴禁投入家用垃圾，違者重罰新台幣6000元"
  },
  {
    "region": "士林區",
    "road": "中山北路",
    "address": "五段433號",
    "location": {  
 "__type": "GeoPoint",  
 "longitude": 121.5272222,
    "latitude": 25.08333333},
    "memo": "嚴禁投入家用垃圾，違者重罰新台幣6000元"
  },
  {
    "region": "士林區",
    "road": "中山北路",
    "address": "五段300號對面",
    "location": {  
 "__type": "GeoPoint",  
 "longitude": 121.5272222,
    "latitude": 25.08888889},
    "memo": "嚴禁投入家用垃圾，違者重罰新台幣6000元"
  },
  {
    "region": "士林區",
    "road": "中山北路",
    "address": "五段282巷對面右側",
    "location": {  
 "__type": "GeoPoint",  
 "longitude": 121.5269444,
    "latitude": 25.08805556},
    "memo": "嚴禁投入家用垃圾，違者重罰新台幣6000元"
  },
  {
    "region": "士林區",
    "road": "中山北路",
    "address": "五段250號對面",
    "location": {  
 "__type": "GeoPoint",  
 "longitude": 121.5263889,
    "latitude": 25.08694444},
    "memo": "嚴禁投入家用垃圾，違者重罰新台幣6000元"
  },
  {
    "region": "士林區",
    "road": "中山北路",
    "address": "五段250號對面",
    "location": {  
 "__type": "GeoPoint",  
 "longitude": 121.5261111,
    "latitude": 25.08666667},
    "memo": "嚴禁投入家用垃圾，違者重罰新台幣6000元"
  },
  {
    "region": "士林區",
    "road": "中山北路",
    "address": "五段6號圓山保齡球館對面",
    "location": {  
 "__type": "GeoPoint",  
 "longitude": 121.5252778,
    "latitude": 25.08277778},
    "memo": "嚴禁投入家用垃圾，違者重罰新台幣6000元"
  },
  {
    "region": "士林區",
    "road": "中山北路",
    "address": "五段6號圓山保齡球館對面",
    "location": {  
 "__type": "GeoPoint",  
 "longitude": 121.525,
    "latitude": 25.08194444},
    "memo": "嚴禁投入家用垃圾，違者重罰新台幣6000元"
  },
  {
    "region": "士林區",
    "road": "中山北路",
    "address": "五段6號左側",
    "location": {  
 "__type": "GeoPoint",  
 "longitude": 121.5247222,
    "latitude": 25.08166667},
    "memo": "嚴禁投入家用垃圾，違者重罰新台幣6000元"
  },
  {
    "region": "士林區",
    "road": "中山北路",
    "address": "五段6號保齡球館出口",
    "location": {  
 "__type": "GeoPoint",  
 "longitude": 121.5255556,
    "latitude": 25.08222222},
    "memo": "嚴禁投入家用垃圾，違者重罰新台幣6000元"
  },
  {
    "region": "士林區",
    "road": "中山北路",
    "address": "五段42號",
    "location": {  
 "__type": "GeoPoint",  
 "longitude": 121.5255556,
    "latitude": 25.08333333},
    "memo": "嚴禁投入家用垃圾，違者重罰新台幣6000元"
  },
  {
    "region": "士林區",
    "road": "中山北路",
    "address": "五段62號",
    "location": {  
 "__type": "GeoPoint",  
 "longitude": 121.5255556,
    "latitude": 25.08361111},
    "memo": "嚴禁投入家用垃圾，違者重罰新台幣6000元"
  },
  {
    "region": "士林區",
    "road": "中山北路",
    "address": "五段104號",
    "location": {  
 "__type": "GeoPoint",  
 "longitude": 121.5258333,
    "latitude": 25.08555556},
    "memo": "嚴禁投入家用垃圾，違者重罰新台幣6000元"
  },
  {
    "region": "士林區",
    "road": "中山北路",
    "address": "五段376號",
    "location": {  
 "__type": "GeoPoint",  
 "longitude": 121.5277778,
    "latitude": 25.08972222},
    "memo": "嚴禁投入家用垃圾，違者重罰新台幣6000元"
  },
  {
    "region": "士林區",
    "road": "中山北路",
    "address": "五段380號",
    "location": {  
 "__type": "GeoPoint",  
 "longitude": 121.5275,
    "latitude": 25.09055556},
    "memo": "嚴禁投入家用垃圾，違者重罰新台幣6000元"
  },
  {
    "region": "士林區",
    "road": "中山北路",
    "address": "五段380號北側",
    "location": {  
 "__type": "GeoPoint",  
 "longitude": 121.5277778,
    "latitude": 25.09083333},
    "memo": "嚴禁投入家用垃圾，違者重罰新台幣6000元"
  },
  {
    "region": "士林區",
    "road": "中山北路",
    "address": "五段455號對面",
    "location": {  
 "__type": "GeoPoint",  
 "longitude": 121.5277778,
    "latitude": 25.09277778},
    "memo": "嚴禁投入家用垃圾，違者重罰新台幣6000元"
  },
  {
    "region": "士林區",
    "road": "中山北路",
    "address": "五段463號對面",
    "location": {  
 "__type": "GeoPoint",  
 "longitude": 121.5277778,
    "latitude": 25.09138889},
    "memo": "嚴禁投入家用垃圾，違者重罰新台幣6000元"
  },
  {
    "region": "士林區",
    "road": "中山北路",
    "address": "五段495號對面",
    "location": {  
 "__type": "GeoPoint",  
 "longitude": 121.5277778,
    "latitude": 25.09194444},
    "memo": "嚴禁投入家用垃圾，違者重罰新台幣6000元"
  },
  {
    "region": "士林區",
    "road": "中山北路",
    "address": "五段505巷對面與福林路交叉口",
    "location": {  
 "__type": "GeoPoint",  
 "longitude": 121.5280556,
    "latitude": 25.09361111},
    "memo": "嚴禁投入家用垃圾，違者重罰新台幣6000元"
  },
  {
    "region": "士林區",
    "road": "中正路",
    "address": "116號對面燦坤左側",
    "location": {  
 "__type": "GeoPoint",  
 "longitude": 121.5288889,
    "latitude": 25.09583333},
    "memo": "嚴禁投入家用垃圾，違者重罰新台幣6000元"
  },
  {
    "region": "士林區",
    "road": "中正路",
    "address": "116號對面燦坤左側",
    "location": {  
 "__type": "GeoPoint",  
 "longitude": 121.5291667,
    "latitude": 25.09583333},
    "memo": "嚴禁投入家用垃圾，違者重罰新台幣6000元"
  },
  {
    "region": "士林區",
    "road": "中正路",
    "address": "104巷對面左側",
    "location": {  
 "__type": "GeoPoint",  
 "longitude": 121.5297222,
    "latitude": 25.09611111},
    "memo": "嚴禁投入家用垃圾，違者重罰新台幣6000元"
  },
  {
    "region": "士林區",
    "road": "中正路",
    "address": "福林地下停車場旁",
    "location": {  
 "__type": "GeoPoint",  
 "longitude": 121.5313889,
    "latitude": 25.09638889},
    "memo": "嚴禁投入家用垃圾，違者重罰新台幣6000元"
  },
  {
    "region": "士林區",
    "road": "福林路",
    "address": "240號泰北中學站牌(右側)",
    "location": {  
 "__type": "GeoPoint",  
 "longitude": 121.5333333,
    "latitude": 25.09722222},
    "memo": "嚴禁投入家用垃圾，違者重罰新台幣6000元"
  },
  {
    "region": "士林區",
    "road": "福林路",
    "address": "240號泰北中學站牌(右側)",
    "location": {  
 "__type": "GeoPoint",  
 "longitude": 121.5336111,
    "latitude": 25.09722222},
    "memo": "嚴禁投入家用垃圾，違者重罰新台幣6000元"
  },
  {
    "region": "士林區",
    "road": "福林路",
    "address": "240號泰北中學站牌(左側)",
    "location": {  
 "__type": "GeoPoint",  
 "longitude": 121.5341667,
    "latitude": 25.0975},
    "memo": "嚴禁投入家用垃圾，違者重罰新台幣6000元"
  },
  {
    "region": "士林區",
    "road": "福林路",
    "address": "247號對面",
    "location": {  
 "__type": "GeoPoint",  
 "longitude": 121.5347222,
    "latitude": 25.09805556},
    "memo": "嚴禁投入家用垃圾，違者重罰新台幣6000元"
  },
  {
    "region": "士林區",
    "road": "福林路",
    "address": "259號對面",
    "location": {  
 "__type": "GeoPoint",  
 "longitude": 121.5352778,
    "latitude": 25.09861111},
    "memo": "嚴禁投入家用垃圾，違者重罰新台幣6000元"
  },
  {
    "region": "士林區",
    "road": "福林路",
    "address": "311號對面",
    "location": {  
 "__type": "GeoPoint",  
 "longitude": 121.5361111,
    "latitude": 25.09888889},
    "memo": "嚴禁投入家用垃圾，違者重罰新台幣6000元"
  },
  {
    "region": "士林區",
    "road": "至善路與",
    "address": "福林路交叉口(雙溪公園旁)",
    "location": {  
 "__type": "GeoPoint",  
 "longitude": 121.5366667,
    "latitude": 25.09888889},
    "memo": "嚴禁投入家用垃圾，違者重罰新台幣6000元"
  },
  {
    "region": "士林區",
    "road": "至善路",
    "address": "一段東吳大學公車站旁",
    "location": {  
 "__type": "GeoPoint",  
 "longitude": 121.5419444,
    "latitude": 25.09722222},
    "memo": "嚴禁投入家用垃圾，違者重罰新台幣6000元"
  },
  {
    "region": "士林區",
    "road": "至善路",
    "address": "一段中影(一)(全家便利商店)",
    "location": {  
 "__type": "GeoPoint",  
 "longitude": 121.5441667,
    "latitude": 25.09694444},
    "memo": "嚴禁投入家用垃圾，違者重罰新台幣6000元"
  },
  {
    "region": "士林區",
    "road": "至善路",
    "address": "一段中影(二)",
    "location": {  
 "__type": "GeoPoint",  
 "longitude": 121.5444444,
    "latitude": 25.09694444},
    "memo": "嚴禁投入家用垃圾，違者重罰新台幣6000元"
  },
  {
    "region": "士林區",
    "road": "至善路",
    "address": "一段中影(三)",
    "location": {  
 "__type": "GeoPoint",  
 "longitude": 121.5447222,
    "latitude": 25.09722222},
    "memo": "嚴禁投入家用垃圾，違者重罰新台幣6000元"
  },
  {
    "region": "士林區",
    "road": "故宮路",
    "address": "19號對面",
    "location": {  
 "__type": "GeoPoint",  
 "longitude": 121.5466667,
    "latitude": 25.0975},
    "memo": "嚴禁投入家用垃圾，違者重罰新台幣6000元"
  },
  {
    "region": "士林區",
    "road": "至善路",
    "address": "二段114-1號",
    "location": {  
 "__type": "GeoPoint",  
 "longitude": 121.5469444,
    "latitude": 25.09833333},
    "memo": "嚴禁投入家用垃圾，違者重罰新台幣6000元"
  },
  {
    "region": "士林區",
    "road": "至善路",
    "address": "二段286號",
    "location": {  
 "__type": "GeoPoint",  
 "longitude": 121.5522222,
    "latitude": 25.10111111},
    "memo": "嚴禁投入家用垃圾，違者重罰新台幣6000元"
  },
  {
    "region": "士林區",
    "road": "至善路",
    "address": "二段322巷口",
    "location": {  
 "__type": "GeoPoint",  
 "longitude": 121.5525,
    "latitude": 25.10083333},
    "memo": "嚴禁投入家用垃圾，違者重罰新台幣6000元"
  },
  {
    "region": "士林區",
    "road": "至善路",
    "address": "二段342巷口旁(張大千)",
    "location": {  
 "__type": "GeoPoint",  
 "longitude": 121.5544444,
    "latitude": 25.10333333},
    "memo": "嚴禁投入家用垃圾，違者重罰新台幣6000元"
  },
  {
    "region": "士林區",
    "road": "至善路",
    "address": "二段360號(至善國中)",
    "location": {  
 "__type": "GeoPoint",  
 "longitude": 121.5555556,
    "latitude": 25.10388889},
    "memo": "嚴禁投入家用垃圾，違者重罰新台幣6000元"
  },
  {
    "region": "士林區",
    "road": "至善路",
    "address": "二段雙溪別墅站牌雙號",
    "location": {  
 "__type": "GeoPoint",  
 "longitude": 121.5572222,
    "latitude": 25.10527778},
    "memo": "嚴禁投入家用垃圾，違者重罰新台幣6000元"
  },
  {
    "region": "士林區",
    "road": "至善路",
    "address": "二段大經橋站牌雙號",
    "location": {  
 "__type": "GeoPoint",  
 "longitude": 121.5572222,
    "latitude": 25.10916667},
    "memo": "嚴禁投入家用垃圾，違者重罰新台幣6000元"
  },
  {
    "region": "士林區",
    "road": "至善路",
    "address": "二段外雙溪橋站牌雙號",
    "location": {  
 "__type": "GeoPoint",  
 "longitude": 121.5583333,
    "latitude": 25.11166667},
    "memo": "嚴禁投入家用垃圾，違者重罰新台幣6000元"
  },
  {
    "region": "士林區",
    "road": "中社路",
    "address": "二段公園與明溪街",
    "location": {  
 "__type": "GeoPoint",  
 "longitude": 121.5658333,
    "latitude": 25.10555556},
    "memo": "嚴禁投入家用垃圾，違者重罰新台幣6000元"
  },
  {
    "region": "士林區",
    "road": "中社路",
    "address": "二段185巷口(一)",
    "location": {  
 "__type": "GeoPoint",  
 "longitude": 121.5711111,
    "latitude": 25.10777778},
    "memo": "嚴禁投入家用垃圾，違者重罰新台幣6000元"
  },
  {
    "region": "士林區",
    "road": "中社路",
    "address": "二段登山步道",
    "location": {  
 "__type": "GeoPoint",  
 "longitude": 121.5677778,
    "latitude": 25.10611111},
    "memo": "嚴禁投入家用垃圾，違者重罰新台幣6000元"
  },
  {
    "region": "士林區",
    "road": "中社路",
    "address": "二段大崙尾山站牌",
    "location": {  
 "__type": "GeoPoint",  
 "longitude": 121.5697222,
    "latitude": 25.10666667},
    "memo": "嚴禁投入家用垃圾，違者重罰新台幣6000元"
  },
  {
    "region": "士林區",
    "road": "中社路",
    "address": "二段雙溪站(一)",
    "location": {  
 "__type": "GeoPoint",  
 "longitude": 121.5672222,
    "latitude": 25.10666667},
    "memo": "嚴禁投入家用垃圾，違者重罰新台幣6000元"
  },
  {
    "region": "士林區",
    "road": "至善路",
    "address": "二段外雙溪橋站牌單號",
    "location": {  
 "__type": "GeoPoint",  
 "longitude": 121.5580556,
    "latitude": 25.11166667},
    "memo": "嚴禁投入家用垃圾，違者重罰新台幣6000元"
  },
  {
    "region": "士林區",
    "road": "至善路",
    "address": "二段449號(大經橋)",
    "location": {  
 "__type": "GeoPoint",  
 "longitude": 121.5572222,
    "latitude": 25.10916667},
    "memo": "嚴禁投入家用垃圾，違者重罰新台幣6000元"
  },
  {
    "region": "士林區",
    "road": "至善路",
    "address": "二段415號(劍南路)",
    "location": {  
 "__type": "GeoPoint",  
 "longitude": 121.5575,
    "latitude": 25.10694444},
    "memo": "嚴禁投入家用垃圾，違者重罰新台幣6000元"
  },
  {
    "region": "士林區",
    "road": "至善路",
    "address": "二段外雙溪別墅站牌",
    "location": {  
 "__type": "GeoPoint",  
 "longitude": 121.5572222,
    "latitude": 25.10555556},
    "memo": "嚴禁投入家用垃圾，違者重罰新台幣6000元"
  },
  {
    "region": "士林區",
    "road": "至善路",
    "address": "二段至善國中對面單號土地公廟",
    "location": {  
 "__type": "GeoPoint",  
 "longitude": 121.5569444,
    "latitude": 25.105},
    "memo": "嚴禁投入家用垃圾，違者重罰新台幣6000元"
  },
  {
    "region": "士林區",
    "road": "至善路",
    "address": "二段至善國中站牌單號",
    "location": {  
 "__type": "GeoPoint",  
 "longitude": 121.5555556,
    "latitude": 25.10388889},
    "memo": "嚴禁投入家用垃圾，違者重罰新台幣6000元"
  },
  {
    "region": "士林區",
    "road": "至善路",
    "address": "二段321號衛理女中旁",
    "location": {  
 "__type": "GeoPoint",  
 "longitude": 121.5522222,
    "latitude": 25.10138889},
    "memo": "嚴禁投入家用垃圾，違者重罰新台幣6000元"
  },
  {
    "region": "士林區",
    "road": "至善路",
    "address": "二段272號對面",
    "location": {  
 "__type": "GeoPoint",  
 "longitude": 121.5511111,
    "latitude": 25.10083333},
    "memo": "嚴禁投入家用垃圾，違者重罰新台幣6000元"
  },
  {
    "region": "士林區",
    "road": "至善路",
    "address": "二段321號故宮站牌左側",
    "location": {  
 "__type": "GeoPoint",  
 "longitude": 121.5494444,
    "latitude": 25.08333333},
    "memo": "嚴禁投入家用垃圾，違者重罰新台幣6000元"
  },
  {
    "region": "士林區",
    "road": "至善路",
    "address": "二段321號故宮1",
    "location": {  
 "__type": "GeoPoint",  
 "longitude": 121.5494444,
    "latitude": 25.1},
    "memo": "嚴禁投入家用垃圾，違者重罰新台幣6000元"
  },
  {
    "region": "士林區",
    "road": "至善路",
    "address": "二段321號故宮2",
    "location": {  
 "__type": "GeoPoint",  
 "longitude": 121.5497222,
    "latitude": 25.10027778},
    "memo": "嚴禁投入家用垃圾，違者重罰新台幣6000元"
  },
  {
    "region": "士林區",
    "road": "至善路",
    "address": "二段321號故宮3",
    "location": {  
 "__type": "GeoPoint",  
 "longitude": 121.5497222,
    "latitude": 25.10055556},
    "memo": "嚴禁投入家用垃圾，違者重罰新台幣6000元"
  },
  {
    "region": "士林區",
    "road": "至善路",
    "address": "二段321號故宮4",
    "location": {  
 "__type": "GeoPoint",  
 "longitude": 121.5502778,
    "latitude": 25.1},
    "memo": "嚴禁投入家用垃圾，違者重罰新台幣6000元"
  },
  {
    "region": "士林區",
    "road": "至善路",
    "address": "二段321號故宮5",
    "location": {  
 "__type": "GeoPoint",  
 "longitude": 121.5505556,
    "latitude": 25.10027778},
    "memo": "嚴禁投入家用垃圾，違者重罰新台幣6000元"
  },
  {
    "region": "士林區",
    "road": "至善路",
    "address": "二段故宮停車場對面",
    "location": {  
 "__type": "GeoPoint",  
 "longitude": 121.5491667,
    "latitude": 25.09944444},
    "memo": "嚴禁投入家用垃圾，違者重罰新台幣6000元"
  },
  {
    "region": "士林區",
    "road": "至善路",
    "address": "二段143巷口",
    "location": {  
 "__type": "GeoPoint",  
 "longitude": 121.5475,
    "latitude": 25.09888889},
    "memo": "嚴禁投入家用垃圾，違者重罰新台幣6000元"
  },
  {
    "region": "士林區",
    "road": "至善路",
    "address": "二段故宮路口對面左側",
    "location": {  
 "__type": "GeoPoint",  
 "longitude": 121.5444444,
    "latitude": 25.09805556},
    "memo": "嚴禁投入家用垃圾，違者重罰新台幣6000元"
  },
  {
    "region": "士林區",
    "road": "至善路",
    "address": "二段9號",
    "location": {  
 "__type": "GeoPoint",  
 "longitude": 121.5436111,
    "latitude": 25.09722222},
    "memo": "嚴禁投入家用垃圾，違者重罰新台幣6000元"
  },
  {
    "region": "士林區",
    "road": "至善路",
    "address": "一段天橋東側1(139號前)",
    "location": {  
 "__type": "GeoPoint",  
 "longitude": 121.5411111,
    "latitude": 25.0975},
    "memo": "嚴禁投入家用垃圾，違者重罰新台幣6000元"
  },
  {
    "region": "士林區",
    "road": "至善路",
    "address": "一段至善公園1",
    "location": {  
 "__type": "GeoPoint",  
 "longitude": 121.5375,
    "latitude": 25.09833333},
    "memo": "嚴禁投入家用垃圾，違者重罰新台幣6000元"
  },
  {
    "region": "士林區",
    "road": "福林路",
    "address": "229號旁",
    "location": {  
 "__type": "GeoPoint",  
 "longitude": 121.5338889,
    "latitude": 25.09777778},
    "memo": "嚴禁投入家用垃圾，違者重罰新台幣6000元"
  },
  {
    "region": "士林區",
    "road": "福林路",
    "address": "205號旁",
    "location": {  
 "__type": "GeoPoint",  
 "longitude": 121.5336111,
    "latitude": 25.0975},
    "memo": "嚴禁投入家用垃圾，違者重罰新台幣6000元"
  },
  {
    "region": "士林區",
    "road": "雨農路",
    "address": "與中正路交叉口右側",
    "location": {  
 "__type": "GeoPoint",  
 "longitude": 121.5319444,
    "latitude": 25.09666667},
    "memo": "嚴禁投入家用垃圾，違者重罰新台幣6000元"
  },
  {
    "region": "士林區",
    "road": "中正路",
    "address": "雙號士林官邸站牌",
    "location": {  
 "__type": "GeoPoint",  
 "longitude": 121.5313889,
    "latitude": 25.09638889},
    "memo": "嚴禁投入家用垃圾，違者重罰新台幣6000元"
  },
  {
    "region": "士林區",
    "road": "中正路",
    "address": "雙號士林官邸站牌左側15公尺",
    "location": {  
 "__type": "GeoPoint",  
 "longitude": 121.5311111,
    "latitude": 25.09638889},
    "memo": "嚴禁投入家用垃圾，違者重罰新台幣6000元"
  },
  {
    "region": "士林區",
    "road": "中正路",
    "address": "104巷福林國小站牌旁",
    "location": {  
 "__type": "GeoPoint",  
 "longitude": 121.5297222,
    "latitude": 25.09611111},
    "memo": "嚴禁投入家用垃圾，違者重罰新台幣6000元"
  },
  {
    "region": "士林區",
    "road": "中山北路",
    "address": "五段685號",
    "location": {  
 "__type": "GeoPoint",  
 "longitude": 121.5275,
    "latitude": 25.09722222},
    "memo": "嚴禁投入家用垃圾，違者重罰新台幣6000元"
  },
  {
    "region": "士林區",
    "road": "中山北路",
    "address": "五段647號",
    "location": {  
 "__type": "GeoPoint",  
 "longitude": 121.5275,
    "latitude": 25.09694444},
    "memo": "嚴禁投入家用垃圾，違者重罰新台幣6000元"
  },
  {
    "region": "士林區",
    "road": "中山北路",
    "address": "五段465號",
    "location": {  
 "__type": "GeoPoint",  
 "longitude": 121.5277778,
    "latitude": 25.09277778},
    "memo": "嚴禁投入家用垃圾，違者重罰新台幣6000元"
  },
  {
    "region": "士林區",
    "road": "中山北路",
    "address": "五段439號",
    "location": {  
 "__type": "GeoPoint",  
 "longitude": 121.5272222,
    "latitude": 25.09111111},
    "memo": "嚴禁投入家用垃圾，違者重罰新台幣6000元"
  },
  {
    "region": "士林區",
    "road": "中山北路",
    "address": "五段台電北區對面站牌437號",
    "location": {  
 "__type": "GeoPoint",  
 "longitude": 121.5272222,
    "latitude": 25.09055556},
    "memo": "嚴禁投入家用垃圾，違者重罰新台幣6000元"
  },
  {
    "region": "士林區",
    "road": "中山北路",
    "address": "五段消防局左斜對面433號",
    "location": {  
 "__type": "GeoPoint",  
 "longitude": 121.5275,
    "latitude": 25.08944444},
    "memo": "嚴禁投入家用垃圾，違者重罰新台幣6000元"
  },
  {
    "region": "士林區",
    "road": "中山北路",
    "address": "五段單號文林路口",
    "location": {  
 "__type": "GeoPoint",  
 "longitude": 121.5252778,
    "latitude": 25.08583333},
    "memo": "嚴禁投入家用垃圾，違者重罰新台幣6000元"
  },
  {
    "region": "士林區",
    "road": "中山北路",
    "address": "五段單號文林路口捷運橋下",
    "location": {  
 "__type": "GeoPoint",  
 "longitude": 121.5258333,
    "latitude": 25.08611111},
    "memo": "嚴禁投入家用垃圾，違者重罰新台幣6000元"
  },
  {
    "region": "士林區",
    "road": "中山北路",
    "address": "五段單號劍潭捷運站北側",
    "location": {  
 "__type": "GeoPoint",  
 "longitude": 121.5252778,
    "latitude": 25.08527778},
    "memo": "嚴禁投入家用垃圾，違者重罰新台幣6000元"
  },
  {
    "region": "士林區",
    "road": "中山北路",
    "address": "五段單號劍潭捷運站南側",
    "location": {  
 "__type": "GeoPoint",  
 "longitude": 121.5252778,
    "latitude": 25.08472222},
    "memo": "嚴禁投入家用垃圾，違者重罰新台幣6000元"
  },
  {
    "region": "士林區",
    "road": "中山北路",
    "address": "五段單號劍潭路口",
    "location": {  
 "__type": "GeoPoint",  
 "longitude": 121.5252778,
    "latitude": 25.08444444},
    "memo": "嚴禁投入家用垃圾，違者重罰新台幣6000元"
  },
  {
    "region": "士林區",
    "road": "中山北路",
    "address": "五段單號劍潭捷運站停車場前",
    "location": {  
 "__type": "GeoPoint",  
 "longitude": 121.5258333,
    "latitude": 25.08666667},
    "memo": "嚴禁投入家用垃圾，違者重罰新台幣6000元"
  },
  {
    "region": "士林區",
    "road": "中山北路",
    "address": "五段單號保齡球館對面",
    "location": {  
 "__type": "GeoPoint",  
 "longitude": 121.5255556,
    "latitude": 25.08305556},
    "memo": "嚴禁投入家用垃圾，違者重罰新台幣6000元"
  },
  {
    "region": "士林區",
    "road": "中山北路",
    "address": "五段250號銘傳大學中側",
    "location": {  
 "__type": "GeoPoint",  
 "longitude": 121.5263889,
    "latitude": 25.08694444},
    "memo": "嚴禁投入家用垃圾，違者重罰新台幣6000元"
  },
  {
    "region": "士林區",
    "road": "中山北路",
    "address": "五段250號銘傳大學北側",
    "location": {  
 "__type": "GeoPoint",  
 "longitude": 121.5266667,
    "latitude": 25.08722222},
    "memo": "嚴禁投入家用垃圾，違者重罰新台幣6000元"
  },
  {
    "region": "士林區",
    "road": "中山北路",
    "address": "五段雙號台電北區站牌北側",
    "location": {  
 "__type": "GeoPoint",  
 "longitude": 121.5277778,
    "latitude": 25.09111111},
    "memo": "嚴禁投入家用垃圾，違者重罰新台幣6000元"
  },
  {
    "region": "士林區",
    "road": "中山北路",
    "address": "五段雙號士林官邸站牌南側",
    "location": {  
 "__type": "GeoPoint",  
 "longitude": 121.5283333,
    "latitude": 25.09444444},
    "memo": "嚴禁投入家用垃圾，違者重罰新台幣6000元"
  },
  {
    "region": "士林區",
    "road": "中山北路",
    "address": "五段雙號士林官邸站牌北側",
    "location": {  
 "__type": "GeoPoint",  
 "longitude": 121.5283333,
    "latitude": 25.095},
    "memo": "嚴禁投入家用垃圾，違者重罰新台幣6000元"
  },
  {
    "region": "士林區",
    "road": "中山北路",
    "address": "五段680號福林橋站牌北側",
    "location": {  
 "__type": "GeoPoint",  
 "longitude": 121.5272222,
    "latitude": 25.09722222},
    "memo": "嚴禁投入家用垃圾，違者重罰新台幣6000元"
  },
  {
    "region": "士林區",
    "road": "中山北路",
    "address": "五段626號福林橋站牌南側",
    "location": {  
 "__type": "GeoPoint",  
 "longitude": 121.5277778,
    "latitude": 25.09694444},
    "memo": "嚴禁投入家用垃圾，違者重罰新台幣6000元"
  },
  {
    "region": "士林區",
    "road": "中山北路",
    "address": "五段433號左側公車站牌(台電北北區營業處)",
    "location": {  
 "__type": "GeoPoint",  
 "longitude": 121.5275,
    "latitude": 25.09444444},
    "memo": "嚴禁投入家用垃圾，違者重罰新台幣6000元"
  },
  {
    "region": "士林區",
    "road": "中山北路",
    "address": "五段-銘傳大學公車站牌",
    "location": {  
 "__type": "GeoPoint",  
 "longitude": 121.5272222,
    "latitude": 25.09638889},
    "memo": "嚴禁投入家用垃圾，違者重罰新台幣6000元"
  },
  {
    "region": "士林區",
    "road": "中山北路",
    "address": "五段-復興廣播電台對面",
    "location": {  
 "__type": "GeoPoint",  
 "longitude": 121.5269444,
    "latitude": 25.09611111},
    "memo": "嚴禁投入家用垃圾，違者重罰新台幣6000元"
  },
  {
    "region": "士林區",
    "road": "承德路",
    "address": "四段177號",
    "location": {  
 "__type": "GeoPoint",  
 "longitude": 121.5244444,
    "latitude": 25.08611111},
    "memo": "嚴禁投入家用垃圾，違者重罰新台幣6000元"
  },
  {
    "region": "士林區",
    "road": "承德路",
    "address": "四段177號",
    "location": {  
 "__type": "GeoPoint",  
 "longitude": 121.5230556,
    "latitude": 25.08638889},
    "memo": "嚴禁投入家用垃圾，違者重罰新台幣6000元"
  },
  {
    "region": "士林區",
    "road": "承德路",
    "address": "四段177號",
    "location": {  
 "__type": "GeoPoint",  
 "longitude": 121.5227778,
    "latitude": 25.08666667},
    "memo": "嚴禁投入家用垃圾，違者重罰新台幣6000元"
  },
  {
    "region": "士林區",
    "road": "承德路",
    "address": "四段239號",
    "location": {  
 "__type": "GeoPoint",  
 "longitude": 121.5213889,
    "latitude": 25.08861111},
    "memo": "嚴禁投入家用垃圾，違者重罰新台幣6000元"
  },
  {
    "region": "士林區",
    "road": "承德路",
    "address": "五段80號監理站驗車(左)1",
    "location": {  
 "__type": "GeoPoint",  
 "longitude": 121.5161111,
    "latitude": 25.09638889},
    "memo": "嚴禁投入家用垃圾，違者重罰新台幣6000元"
  },
  {
    "region": "士林區",
    "road": "承德路",
    "address": "五段80號監理站公車站(左)",
    "location": {  
 "__type": "GeoPoint",  
 "longitude": 121.5138889,
    "latitude": 25.095},
    "memo": "嚴禁投入家用垃圾，違者重罰新台幣6000元"
  },
  {
    "region": "士林區",
    "road": "承德路",
    "address": "五段80號監理站大門(左)1",
    "location": {  
 "__type": "GeoPoint",  
 "longitude": 121.5144444,
    "latitude": 25.09472222},
    "memo": "嚴禁投入家用垃圾，違者重罰新台幣6000元"
  },
  {
    "region": "士林區",
    "road": "承德路",
    "address": "五段80號監理站大門(左)2",
    "location": {  
 "__type": "GeoPoint",  
 "longitude": 121.5141667,
    "latitude": 25.09444444},
    "memo": "嚴禁投入家用垃圾，違者重罰新台幣6000元"
  },
  {
    "region": "士林區",
    "road": "中山北路",
    "address": "四段67號",
    "location": {  
 "__type": "GeoPoint",  
 "longitude": 121.5211111,
    "latitude": 25.08861111},
    "memo": "嚴禁投入家用垃圾，違者重罰新台幣6000元"
  },
  {
    "region": "士林區",
    "road": "承德路",
    "address": "四段177號",
    "location": {  
 "__type": "GeoPoint",  
 "longitude": 121.5233333,
    "latitude": 25.08583333},
    "memo": "嚴禁投入家用垃圾，違者重罰新台幣6000元"
  },
  {
    "region": "士林區",
    "road": "承德路",
    "address": "四段177號",
    "location": {  
 "__type": "GeoPoint",  
 "longitude": 121.5230556,
    "latitude": 25.08611111},
    "memo": "嚴禁投入家用垃圾，違者重罰新台幣6000元"
  },
  {
    "region": "士林區",
    "road": "承德路",
    "address": "四段177號",
    "location": {  
 "__type": "GeoPoint",  
 "longitude": 121.5227778,
    "latitude": 25.08638889},
    "memo": "嚴禁投入家用垃圾，違者重罰新台幣6000元"
  },
  {
    "region": "士林區",
    "road": "承德路",
    "address": "四段177號",
    "location": {  
 "__type": "GeoPoint",  
 "longitude": 121.5225,
    "latitude": 25.08694444},
    "memo": "嚴禁投入家用垃圾，違者重罰新台幣6000元"
  },
  {
    "region": "士林區",
    "road": "承德路",
    "address": "四段177號",
    "location": {  
 "__type": "GeoPoint",  
 "longitude": 121.5225,
    "latitude": 25.08722222},
    "memo": "嚴禁投入家用垃圾，違者重罰新台幣6000元"
  },
  {
    "region": "士林區",
    "road": "承德路",
    "address": "四段220號",
    "location": {  
 "__type": "GeoPoint",  
 "longitude": 121.5216667,
    "latitude": 25.08861111},
    "memo": "嚴禁投入家用垃圾，違者重罰新台幣6000元"
  },
  {
    "region": "士林區",
    "road": "承德路",
    "address": "四段234號",
    "location": {  
 "__type": "GeoPoint",  
 "longitude": 121.5166667,
    "latitude": 25.09111111},
    "memo": "嚴禁投入家用垃圾，違者重罰新台幣6000元"
  },
  {
    "region": "士林區",
    "road": "中正路",
    "address": "439號士林行政中心",
    "location": {  
 "__type": "GeoPoint",  
 "longitude": 121.5191667,
    "latitude": 25.0925},
    "memo": "嚴禁投入家用垃圾，違者重罰新台幣6000元"
  },
  {
    "region": "士林區",
    "road": "中正路",
    "address": "510號陽明高中站牌",
    "location": {  
 "__type": "GeoPoint",  
 "longitude": 121.5177778,
    "latitude": 25.09166667},
    "memo": "嚴禁投入家用垃圾，違者重罰新台幣6000元"
  },
  {
    "region": "士林區",
    "road": "中正路",
    "address": "510號大橋口旁",
    "location": {  
 "__type": "GeoPoint",  
 "longitude": 121.5175,
    "latitude": 25.09194444},
    "memo": "嚴禁投入家用垃圾，違者重罰新台幣6000元"
  },
  {
    "region": "士林區",
    "road": "中正路",
    "address": "510號陽明高中大門左側",
    "location": {  
 "__type": "GeoPoint",  
 "longitude": 121.5166667,
    "latitude": 25.09138889},
    "memo": "嚴禁投入家用垃圾，違者重罰新台幣6000元"
  },
  {
    "region": "士林區",
    "road": "中正路",
    "address": "519號陽明高中站牌(右)",
    "location": {  
 "__type": "GeoPoint",  
 "longitude": 121.5169444,
    "latitude": 25.09111111},
    "memo": "嚴禁投入家用垃圾，違者重罰新台幣6000元"
  },
  {
    "region": "士林區",
    "road": "中正路",
    "address": "519號陽明高中站牌(右)",
    "location": {  
 "__type": "GeoPoint",  
 "longitude": 121.5166667,
    "latitude": 25.09138889},
    "memo": "嚴禁投入家用垃圾，違者重罰新台幣6000元"
  },
  {
    "region": "士林區",
    "road": "士商路",
    "address": "189號科教館基河路396巷交叉口",
    "location": {  
 "__type": "GeoPoint",  
 "longitude": 121.5141667,
    "latitude": 25.09611111},
    "memo": "嚴禁投入家用垃圾，違者重罰新台幣6000元"
  },
  {
    "region": "士林區",
    "road": "士商路",
    "address": "189號科教館基河路396巷交叉口(左側)",
    "location": {  
 "__type": "GeoPoint",  
 "longitude": 121.5163889,
    "latitude": 25.09638889},
    "memo": "嚴禁投入家用垃圾，違者重罰新台幣6000元"
  },
  {
    "region": "士林區",
    "road": "士商路",
    "address": "189號科教館基河路396巷交叉口(右側)",
    "location": {  
 "__type": "GeoPoint",  
 "longitude": 121.5161111,
    "latitude": 25.09527778},
    "memo": "嚴禁投入家用垃圾，違者重罰新台幣6000元"
  },
  {
    "region": "士林區",
    "road": "士商路",
    "address": "189號科教館基河路396巷交叉口(停車場入口)",
    "location": {  
 "__type": "GeoPoint",  
 "longitude": 121.5141667,
    "latitude": 25.09611111},
    "memo": "嚴禁投入家用垃圾，違者重罰新台幣6000元"
  },
  {
    "region": "士林區",
    "road": "承德路",
    "address": "五段80號監理站驗車(左)",
    "location": {  
 "__type": "GeoPoint",  
 "longitude": 121.5138889,
    "latitude": 25.09555556},
    "memo": "嚴禁投入家用垃圾，違者重罰新台幣6000元"
  },
  {
    "region": "士林區",
    "road": "承德路",
    "address": "五段80號監理站公車站(右)",
    "location": {  
 "__type": "GeoPoint",  
 "longitude": 121.5141667,
    "latitude": 25.09611111},
    "memo": "嚴禁投入家用垃圾，違者重罰新台幣6000元"
  },
  {
    "region": "士林區",
    "road": "承德路",
    "address": "五段80號監理站公車站(右)",
    "location": {  
 "__type": "GeoPoint",  
 "longitude": 121.5141667,
    "latitude": 25.09416667},
    "memo": "嚴禁投入家用垃圾，違者重罰新台幣6000元"
  },
  {
    "region": "士林區",
    "road": "承德路",
    "address": "五段80號機車路考場",
    "location": {  
 "__type": "GeoPoint",  
 "longitude": 121.5144444,
    "latitude": 25.09416667},
    "memo": "嚴禁投入家用垃圾，違者重罰新台幣6000元"
  },
  {
    "region": "士林區",
    "road": "福國路",
    "address": "36號",
    "location": {  
 "__type": "GeoPoint",  
 "longitude": 121.5241667,
    "latitude": 25.10222222},
    "memo": "嚴禁投入家用垃圾，違者重罰新台幣6000元"
  },
  {
    "region": "士林區",
    "road": "福國路",
    "address": "95之15號",
    "location": {  
 "__type": "GeoPoint",  
 "longitude": 121.5222222,
    "latitude": 25.10166667},
    "memo": "嚴禁投入家用垃圾，違者重罰新台幣6000元"
  },
  {
    "region": "士林區",
    "road": "福國路",
    "address": "21-1號前",
    "location": {  
 "__type": "GeoPoint",  
 "longitude": 121.5241667,
    "latitude": 25.10194444},
    "memo": "嚴禁投入家用垃圾，違者重罰新台幣6000元"
  },
  {
    "region": "士林區",
    "road": "福國路",
    "address": "與中山北六段(僑園斜對面)",
    "location": {  
 "__type": "GeoPoint",  
 "longitude": 121.5255556,
    "latitude": 25.1025},
    "memo": "嚴禁投入家用垃圾，違者重罰新台幣6000元"
  },
  {
    "region": "士林區",
    "road": "文林路",
    "address": "665號",
    "location": {  
 "__type": "GeoPoint",  
 "longitude": 121.5225,
    "latitude": 25.10083333},
    "memo": "嚴禁投入家用垃圾，違者重罰新台幣6000元"
  },
  {
    "region": "士林區",
    "road": "文林路",
    "address": "706號",
    "location": {  
 "__type": "GeoPoint",  
 "longitude": 121.5211111,
    "latitude": 25.10222222},
    "memo": "嚴禁投入家用垃圾，違者重罰新台幣6000元"
  },
  {
    "region": "士林區",
    "road": "文林路",
    "address": "712號對面",
    "location": {  
 "__type": "GeoPoint",  
 "longitude": 121.5208333,
    "latitude": 25.10222222},
    "memo": "嚴禁投入家用垃圾，違者重罰新台幣6000元"
  },
  {
    "region": "士林區",
    "road": "文林路",
    "address": "720號對面",
    "location": {  
 "__type": "GeoPoint",  
 "longitude": 121.5205556,
    "latitude": 25.10222222},
    "memo": "嚴禁投入家用垃圾，違者重罰新台幣6000元"
  },
  {
    "region": "士林區",
    "road": "忠誠路",
    "address": "一段忠誠公園車站牌前",
    "location": {  
 "__type": "GeoPoint",  
 "longitude": 121.5258333,
    "latitude": 25.10388889},
    "memo": "嚴禁投入家用垃圾，違者重罰新台幣6000元"
  },
  {
    "region": "士林區",
    "road": "忠誠路",
    "address": "一段忠誠公園車站牌前",
    "location": {  
 "__type": "GeoPoint",  
 "longitude": 121.5261111,
    "latitude": 25.10416667},
    "memo": "嚴禁投入家用垃圾，違者重罰新台幣6000元"
  },
  {
    "region": "士林區",
    "road": "忠誠路",
    "address": "一段104號前",
    "location": {  
 "__type": "GeoPoint",  
 "longitude": 121.5283333,
    "latitude": 25.10555556},
    "memo": "嚴禁投入家用垃圾，違者重罰新台幣6000元"
  },
  {
    "region": "士林區",
    "road": "仰德大道",
    "address": "一段12巷口(芝山派出所旁)",
    "location": {  
 "__type": "GeoPoint",  
 "longitude": 121.5377778,
    "latitude": 25.10111111},
    "memo": "嚴禁投入家用垃圾，違者重罰新台幣6000元"
  },
  {
    "region": "士林區",
    "road": "仰德大道",
    "address": "一段91巷口芝蘭新村站牌",
    "location": {  
 "__type": "GeoPoint",  
 "longitude": 121.5372222,
    "latitude": 25.1075},
    "memo": "嚴禁投入家用垃圾，違者重罰新台幣6000元"
  },
  {
    "region": "士林區",
    "road": "中山北路",
    "address": "六段六段福林橋前",
    "location": {  
 "__type": "GeoPoint",  
 "longitude": 121.5261111,
    "latitude": 25.10194444},
    "memo": "嚴禁投入家用垃圾，違者重罰新台幣6000元"
  },
  {
    "region": "士林區",
    "road": "中山北路",
    "address": "六段31號",
    "location": {  
 "__type": "GeoPoint",  
 "longitude": 121.5247222,
    "latitude": 25.10361111},
    "memo": "嚴禁投入家用垃圾，違者重罰新台幣6000元"
  },
  {
    "region": "士林區",
    "road": "中山北路",
    "address": "六段六段19號對面(忠誠公園旁)",
    "location": {  
 "__type": "GeoPoint",  
 "longitude": 121.5252778,
    "latitude": 25.10333333},
    "memo": "嚴禁投入家用垃圾，違者重罰新台幣6000元"
  },
  {
    "region": "士林區",
    "road": "中山北路",
    "address": "六段76號",
    "location": {  
 "__type": "GeoPoint",  
 "longitude": 121.5247222,
    "latitude": 25.10444444},
    "memo": "嚴禁投入家用垃圾，違者重罰新台幣6000元"
  },
  {
    "region": "士林區",
    "road": "中山北路",
    "address": "六段212號",
    "location": {  
 "__type": "GeoPoint",  
 "longitude": 121.5252778,
    "latitude": 25.10833333},
    "memo": "嚴禁投入家用垃圾，違者重罰新台幣6000元"
  },
  {
    "region": "士林區",
    "road": "中山北路",
    "address": "六段336號",
    "location": {  
 "__type": "GeoPoint",  
 "longitude": 121.5258333,
    "latitude": 25.11166667},
    "memo": "嚴禁投入家用垃圾，違者重罰新台幣6000元"
  },
  {
    "region": "士林區",
    "road": "中山北路",
    "address": "六段336號對面",
    "location": {  
 "__type": "GeoPoint",  
 "longitude": 121.5258333,
    "latitude": 25.11166667},
    "memo": "嚴禁投入家用垃圾，違者重罰新台幣6000元"
  },
  {
    "region": "士林區",
    "road": "德行西路",
    "address": "96號",
    "location": {  
 "__type": "GeoPoint",  
 "longitude": 121.5211111,
    "latitude": 25.10416667},
    "memo": "嚴禁投入家用垃圾，違者重罰新台幣6000元"
  },
  {
    "region": "士林區",
    "road": "德行東路",
    "address": "147號",
    "location": {  
 "__type": "GeoPoint",  
 "longitude": 121.5297222,
    "latitude": 25.10805556},
    "memo": "嚴禁投入家用垃圾，違者重罰新台幣6000元"
  },
  {
    "region": "士林區",
    "road": "德行東路",
    "address": "156號",
    "location": {  
 "__type": "GeoPoint",  
 "longitude": 121.5297222,
    "latitude": 25.10833333},
    "memo": "嚴禁投入家用垃圾，違者重罰新台幣6000元"
  },
  {
    "region": "士林區",
    "road": "德行東路",
    "address": "200號",
    "location": {  
 "__type": "GeoPoint",  
 "longitude": 121.5316667,
    "latitude": 25.10888889},
    "memo": "嚴禁投入家用垃圾，違者重罰新台幣6000元"
  },
  {
    "region": "士林區",
    "road": "德行東路",
    "address": "328號對面(芝山國小站牌)前",
    "location": {  
 "__type": "GeoPoint",  
 "longitude": 121.5372222,
    "latitude": 25.11027778},
    "memo": "嚴禁投入家用垃圾，違者重罰新台幣6000元"
  },
  {
    "region": "士林區",
    "road": "雨聲街",
    "address": "雨農國小車站(後門)",
    "location": {  
 "__type": "GeoPoint",  
 "longitude": 121.5302778,
    "latitude": 25.10472222},
    "memo": "嚴禁投入家用垃圾，違者重罰新台幣6000元"
  },
  {
    "region": "士林區",
    "road": "雨聲街",
    "address": "36號(85度C咖啡廳)",
    "location": {  
 "__type": "GeoPoint",  
 "longitude": 121.5291667,
    "latitude": 25.10194444},
    "memo": "嚴禁投入家用垃圾，違者重罰新台幣6000元"
  },
  {
    "region": "士林區",
    "road": "仰德大道",
    "address": "(華興中學)",
    "location": {  
 "__type": "GeoPoint",  
 "longitude": 121.5377778,
    "latitude": 25.10416667},
    "memo": "嚴禁投入家用垃圾，違者重罰新台幣6000元"
  },
  {
    "region": "士林區",
    "road": "仰德大道",
    "address": "二段嶺頭站牌",
    "location": {  
 "__type": "GeoPoint",  
 "longitude": 121.5402778,
    "latitude": 25.10222222},
    "memo": "嚴禁投入家用垃圾，違者重罰新台幣6000元"
  },
  {
    "region": "士林區",
    "road": "仰德大道",
    "address": "二段134巷對面公車站排旁(林語堂故居)",
    "location": {  
 "__type": "GeoPoint",  
 "longitude": 121.5472222,
    "latitude": 25.10972222},
    "memo": "嚴禁投入家用垃圾，違者重罰新台幣6000元"
  },
  {
    "region": "士林區",
    "road": "仰德大道",
    "address": "三段5巷旁(福音公車站牌)",
    "location": {  
 "__type": "GeoPoint",  
 "longitude": 121.5502778,
    "latitude": 25.11416667},
    "memo": "嚴禁投入家用垃圾，違者重罰新台幣6000元"
  },
  {
    "region": "士林區",
    "road": "仰德大道",
    "address": "四段75號公車站牌旁(格致國中)",
    "location": {  
 "__type": "GeoPoint",  
 "longitude": 121.5469444,
    "latitude": 25.13083333},
    "memo": "嚴禁投入家用垃圾，違者重罰新台幣6000元"
  },
  {
    "region": "士林區",
    "road": "愛富一街",
    "address": "旁公車站牌旁(一)文化大學公車站",
    "location": {  
 "__type": "GeoPoint",  
 "longitude": 121.5463889,
    "latitude": 25.13805556},
    "memo": "嚴禁投入家用垃圾，違者重罰新台幣6000元"
  },
  {
    "region": "士林區",
    "road": "愛富一街",
    "address": "旁公車站牌旁(二)文化大學公車站",
    "location": {  
 "__type": "GeoPoint",  
 "longitude": 121.5463889,
    "latitude": 25.13805556},
    "memo": "嚴禁投入家用垃圾，違者重罰新台幣6000元"
  },
  {
    "region": "士林區",
    "road": "和平路",
    "address": "10號旁(一)文化大學公車站",
    "location": {  
 "__type": "GeoPoint",  
 "longitude": 121.5466667,
    "latitude": 25.13861111},
    "memo": "嚴禁投入家用垃圾，違者重罰新台幣6000元"
  },
  {
    "region": "士林區",
    "road": "和平路",
    "address": "10號旁(二)文化大學公車站",
    "location": {  
 "__type": "GeoPoint",  
 "longitude": 121.5466667,
    "latitude": 25.13861111},
    "memo": "嚴禁投入家用垃圾，違者重罰新台幣6000元"
  },
  {
    "region": "士林區",
    "road": "大亨路",
    "address": "(格致路167巷斜對面公車站牌)",
    "location": {  
 "__type": "GeoPoint",  
 "longitude": 121.5494444,
    "latitude": 25.14083333},
    "memo": "嚴禁投入家用垃圾，違者重罰新台幣6000元"
  },
  {
    "region": "士林區",
    "road": "大亨路",
    "address": "(格致路166巷斜對面公車站牌旁)",
    "location": {  
 "__type": "GeoPoint",  
 "longitude": 121.5494444,
    "latitude": 25.14083333},
    "memo": "嚴禁投入家用垃圾，違者重罰新台幣6000元"
  },
  {
    "region": "士林區",
    "road": "大亨路",
    "address": "公車站牌旁(中國大飯店)",
    "location": {  
 "__type": "GeoPoint",  
 "longitude": 121.5491667,
    "latitude": 25.1425},
    "memo": "嚴禁投入家用垃圾，違者重罰新台幣6000元"
  },
  {
    "region": "士林區",
    "road": "平菁街",
    "address": "86號流動廁所旁(一)",
    "location": {  
 "__type": "GeoPoint",  
 "longitude": 121.5763889,
    "latitude": 25.13138889},
    "memo": "嚴禁投入家用垃圾，違者重罰新台幣6000元"
  },
  {
    "region": "士林區",
    "road": "平菁街",
    "address": "86號流動廁所旁(二)",
    "location": {  
 "__type": "GeoPoint",  
 "longitude": 121.5763889,
    "latitude": 25.13138889},
    "memo": "嚴禁投入家用垃圾，違者重罰新台幣6000元"
  },
  {
    "region": "士林區",
    "road": "平菁街",
    "address": "106巷(合誠宮對面)(一)",
    "location": {  
 "__type": "GeoPoint",  
 "longitude": 121.5725,
    "latitude": 25.13027778},
    "memo": "嚴禁投入家用垃圾，違者重罰新台幣6000元"
  },
  {
    "region": "士林區",
    "road": "平菁街",
    "address": "106巷(合誠宮對面)(二)",
    "location": {  
 "__type": "GeoPoint",  
 "longitude": 121.5725,
    "latitude": 25.13027778},
    "memo": "嚴禁投入家用垃圾，違者重罰新台幣6000元"
  },
  {
    "region": "士林區",
    "road": "平菁街",
    "address": "43巷",
    "location": {  
 "__type": "GeoPoint",  
 "longitude": 121.5733333,
    "latitude": 25.13055556},
    "memo": "嚴禁投入家用垃圾，違者重罰新台幣6000元"
  },
  {
    "region": "士林區",
    "road": "凱旋路",
    "address": "(觀景台)",
    "location": {  
 "__type": "GeoPoint",  
 "longitude": 121.5394444,
    "latitude": 25.13416667},
    "memo": "嚴禁投入家用垃圾，違者重罰新台幣6000元"
  },
  {
    "region": "士林區",
    "road": "菁山路",
    "address": "125巷",
    "location": {  
 "__type": "GeoPoint",  
 "longitude": 121.565,
    "latitude": 25.14472222},
    "memo": "嚴禁投入家用垃圾，違者重罰新台幣6000元"
  },
  {
    "region": "大同區",
    "road": "民權西路",
    "address": "95號對面公車站內",
    "location": {  
 "__type": "GeoPoint",  
 "longitude": 121.5186111,
    "latitude": 25.06305556},
    "memo": "嚴禁投入家用垃圾，違者重罰新台幣6000元"
  },
  {
    "region": "大同區",
    "road": "民權西路",
    "address": "95號對面公車站內",
    "location": {  
 "__type": "GeoPoint",  
 "longitude": 121.5186111,
    "latitude": 25.06305556},
    "memo": "嚴禁投入家用垃圾，違者重罰新台幣6000元"
  },
  {
    "region": "大同區",
    "road": "承德路",
    "address": "3段5號",
    "location": {  
 "__type": "GeoPoint",  
 "longitude": 121.5183333,
    "latitude": 25.06333333},
    "memo": "嚴禁投入家用垃圾，違者重罰新台幣6000元"
  },
  {
    "region": "大同區",
    "road": "承德路",
    "address": "3段15號",
    "location": {  
 "__type": "GeoPoint",  
 "longitude": 121.5183333,
    "latitude": 25.06333333},
    "memo": "嚴禁投入家用垃圾，違者重罰新台幣6000元"
  },
  {
    "region": "大同區",
    "road": "承德路",
    "address": "3段53號",
    "location": {  
 "__type": "GeoPoint",  
 "longitude": 121.5186111,
    "latitude": 25.06555556},
    "memo": "嚴禁投入家用垃圾，違者重罰新台幣6000元"
  },
  {
    "region": "大同區",
    "road": "承德路",
    "address": "3段95號",
    "location": {  
 "__type": "GeoPoint",  
 "longitude": 121.5183333,
    "latitude": 25.06583333},
    "memo": "嚴禁投入家用垃圾，違者重罰新台幣6000元"
  },
  {
    "region": "大同區",
    "road": "承德路",
    "address": "3段131號",
    "location": {  
 "__type": "GeoPoint",  
 "longitude": 121.5186111,
    "latitude": 25.0675},
    "memo": "嚴禁投入家用垃圾，違者重罰新台幣6000元"
  },
  {
    "region": "大同區",
    "road": "承德路",
    "address": "3段175號",
    "location": {  
 "__type": "GeoPoint",  
 "longitude": 121.5186111,
    "latitude": 25.06916667},
    "memo": "嚴禁投入家用垃圾，違者重罰新台幣6000元"
  },
  {
    "region": "大同區",
    "road": "承德路",
    "address": "3段223號",
    "location": {  
 "__type": "GeoPoint",  
 "longitude": 121.5183333,
    "latitude": 25.07},
    "memo": "嚴禁投入家用垃圾，違者重罰新台幣6000元"
  },
  {
    "region": "大同區",
    "road": "酒泉街",
    "address": "圓山捷運酒泉街1號出口",
    "location": {  
 "__type": "GeoPoint",  
 "longitude": 121.5197222,
    "latitude": 25.07083333},
    "memo": "嚴禁投入家用垃圾，違者重罰新台幣6000元"
  },
  {
    "region": "大同區",
    "road": "酒泉街",
    "address": "圓山捷運酒泉街1號出口",
    "location": {  
 "__type": "GeoPoint",  
 "longitude": 121.52,
    "latitude": 25.07111111},
    "memo": "嚴禁投入家用垃圾，違者重罰新台幣6000元"
  },
  {
    "region": "大同區",
    "road": "酒泉街",
    "address": "圓山捷運酒泉街1號出口",
    "location": {  
 "__type": "GeoPoint",  
 "longitude": 121.52,
    "latitude": 25.07111111},
    "memo": "嚴禁投入家用垃圾，違者重罰新台幣6000元"
  },
  {
    "region": "大同區",
    "road": "庫倫街",
    "address": "圓山捷運庫倫街2號出口",
    "location": {  
 "__type": "GeoPoint",  
 "longitude": 121.5202778,
    "latitude": 25.07194444},
    "memo": "嚴禁投入家用垃圾，違者重罰新台幣6000元"
  },
  {
    "region": "大同區",
    "road": "承德路",
    "address": "3段（中華電信）",
    "location": {  
 "__type": "GeoPoint",  
 "longitude": 121.5186111,
    "latitude": 25.07166667},
    "memo": "嚴禁投入家用垃圾，違者重罰新台幣6000元"
  },
  {
    "region": "大同區",
    "road": "承德路",
    "address": "3段277號(合作金庫)",
    "location": {  
 "__type": "GeoPoint",  
 "longitude": 121.5191667,
    "latitude": 25.07277778},
    "memo": "嚴禁投入家用垃圾，違者重罰新台幣6000元"
  },
  {
    "region": "大同區",
    "road": "承德路",
    "address": "3段285號(明倫國小)",
    "location": {  
 "__type": "GeoPoint",  
 "longitude": 121.5191667,
    "latitude": 25.07333333},
    "memo": "嚴禁投入家用垃圾，違者重罰新台幣6000元"
  },
  {
    "region": "大同區",
    "road": "承德路",
    "address": "3段287號(職訓中心)",
    "location": {  
 "__type": "GeoPoint",  
 "longitude": 121.5197222,
    "latitude": 25.07444444},
    "memo": "嚴禁投入家用垃圾，違者重罰新台幣6000元"
  },
  {
    "region": "大同區",
    "road": "承德路",
    "address": "3段敦煌路口(勞檢處)",
    "location": {  
 "__type": "GeoPoint",  
 "longitude": 121.52,
    "latitude": 25.075},
    "memo": "嚴禁投入家用垃圾，違者重罰新台幣6000元"
  },
  {
    "region": "大同區",
    "road": "承德路",
    "address": "3段336號",
    "location": {  
 "__type": "GeoPoint",  
 "longitude": 121.5202778,
    "latitude": 25.07611111},
    "memo": "嚴禁投入家用垃圾，違者重罰新台幣6000元"
  },
  {
    "region": "大同區",
    "road": "敦煌路",
    "address": "19號（明倫高中）",
    "location": {  
 "__type": "GeoPoint",  
 "longitude": 121.5197222,
    "latitude": 25.07555556},
    "memo": "嚴禁投入家用垃圾，違者重罰新台幣6000元"
  },
  {
    "region": "大同區",
    "road": "敦煌路",
    "address": "19號（重慶國中）",
    "location": {  
 "__type": "GeoPoint",  
 "longitude": 121.5180556,
    "latitude": 25.07583333},
    "memo": "嚴禁投入家用垃圾，違者重罰新台幣6000元"
  },
  {
    "region": "大同區",
    "road": "敦煌路",
    "address": "平光寺門口",
    "location": {  
 "__type": "GeoPoint",  
 "longitude": 121.5177778,
    "latitude": 25.07555556},
    "memo": "嚴禁投入家用垃圾，違者重罰新台幣6000元"
  },
  {
    "region": "大同區",
    "road": "承德路",
    "address": "3段320號",
    "location": {  
 "__type": "GeoPoint",  
 "longitude": 121.5197222,
    "latitude": 25.075},
    "memo": "嚴禁投入家用垃圾，違者重罰新台幣6000元"
  },
  {
    "region": "大同區",
    "road": "承德路",
    "address": "3段264號",
    "location": {  
 "__type": "GeoPoint",  
 "longitude": 121.5191667,
    "latitude": 25.07361111},
    "memo": "嚴禁投入家用垃圾，違者重罰新台幣6000元"
  },
  {
    "region": "大同區",
    "road": "承德路",
    "address": "3段240號",
    "location": {  
 "__type": "GeoPoint",  
 "longitude": 121.5191667,
    "latitude": 25.07277778},
    "memo": "嚴禁投入家用垃圾，違者重罰新台幣6000元"
  },
  {
    "region": "大同區",
    "road": "庫倫街",
    "address": "25號",
    "location": {  
 "__type": "GeoPoint",  
 "longitude": 121.5177778,
    "latitude": 25.07222222},
    "memo": "嚴禁投入家用垃圾，違者重罰新台幣6000元"
  },
  {
    "region": "大同區",
    "road": "酒泉街",
    "address": "保安宮(公車站牌)",
    "location": {  
 "__type": "GeoPoint",  
 "longitude": 121.5155556,
    "latitude": 25.07222222},
    "memo": "嚴禁投入家用垃圾，違者重罰新台幣6000元"
  },
  {
    "region": "大同區",
    "road": "承德路",
    "address": "3段212號",
    "location": {  
 "__type": "GeoPoint",  
 "longitude": 121.5188889,
    "latitude": 25.07111111},
    "memo": "嚴禁投入家用垃圾，違者重罰新台幣6000元"
  },
  {
    "region": "大同區",
    "road": "承德路",
    "address": "3段206號",
    "location": {  
 "__type": "GeoPoint",  
 "longitude": 121.5186111,
    "latitude": 25.07055556},
    "memo": "嚴禁投入家用垃圾，違者重罰新台幣6000元"
  },
  {
    "region": "大同區",
    "road": "承德路",
    "address": "3段160號",
    "location": {  
 "__type": "GeoPoint",  
 "longitude": 121.5186111,
    "latitude": 25.06888889},
    "memo": "嚴禁投入家用垃圾，違者重罰新台幣6000元"
  },
  {
    "region": "大同區",
    "road": "民族西路",
    "address": "80號",
    "location": {  
 "__type": "GeoPoint",  
 "longitude": 121.5175,
    "latitude": 25.06833333},
    "memo": "嚴禁投入家用垃圾，違者重罰新台幣6000元"
  },
  {
    "region": "大同區",
    "road": "承德路",
    "address": "3段152號",
    "location": {  
 "__type": "GeoPoint",  
 "longitude": 121.5183333,
    "latitude": 25.06833333},
    "memo": "嚴禁投入家用垃圾，違者重罰新台幣6000元"
  },
  {
    "region": "大同區",
    "road": "承德路",
    "address": "3段52號",
    "location": {  
 "__type": "GeoPoint",  
 "longitude": 121.5186111,
    "latitude": 25.065},
    "memo": "嚴禁投入家用垃圾，違者重罰新台幣6000元"
  },
  {
    "region": "大同區",
    "road": "民權西路",
    "address": "125號",
    "location": {  
 "__type": "GeoPoint",  
 "longitude": 121.5175,
    "latitude": 25.06277778},
    "memo": "嚴禁投入家用垃圾，違者重罰新台幣6000元"
  },
  {
    "region": "大同區",
    "road": "民權西路",
    "address": "151號",
    "location": {  
 "__type": "GeoPoint",  
 "longitude": 121.5169444,
    "latitude": 25.06277778},
    "memo": "嚴禁投入家用垃圾，違者重罰新台幣6000元"
  },
  {
    "region": "大同區",
    "road": "民權西路",
    "address": "大龍街公車站",
    "location": {  
 "__type": "GeoPoint",  
 "longitude": 121.5163889,
    "latitude": 25.06277778},
    "memo": "嚴禁投入家用垃圾，違者重罰新台幣6000元"
  },
  {
    "region": "大同區",
    "road": "民權西路",
    "address": "221號",
    "location": {  
 "__type": "GeoPoint",  
 "longitude": 121.5144444,
    "latitude": 25.06305556},
    "memo": "嚴禁投入家用垃圾，違者重罰新台幣6000元"
  },
  {
    "region": "大同區",
    "road": "重慶北路",
    "address": "3段11號",
    "location": {  
 "__type": "GeoPoint",  
 "longitude": 121.5136111,
    "latitude": 25.06444444},
    "memo": "嚴禁投入家用垃圾，違者重罰新台幣6000元"
  },
  {
    "region": "大同區",
    "road": "重慶北路",
    "address": "3段昌吉街口公車站內",
    "location": {  
 "__type": "GeoPoint",  
 "longitude": 121.5136111,
    "latitude": 25.06583333},
    "memo": "嚴禁投入家用垃圾，違者重罰新台幣6000元"
  },
  {
    "region": "大同區",
    "road": "重慶北路",
    "address": "3段昌吉街公車站",
    "location": {  
 "__type": "GeoPoint",  
 "longitude": 121.5138889,
    "latitude": 25.06583333},
    "memo": "嚴禁投入家用垃圾，違者重罰新台幣6000元"
  },
  {
    "region": "大同區",
    "road": "重慶北路",
    "address": "3段57號",
    "location": {  
 "__type": "GeoPoint",  
 "longitude": 121.5136111,
    "latitude": 25.06611111},
    "memo": "嚴禁投入家用垃圾，違者重罰新台幣6000元"
  },
  {
    "region": "大同區",
    "road": "重慶北路",
    "address": "3段民族西路公車站",
    "location": {  
 "__type": "GeoPoint",  
 "longitude": 121.5136111,
    "latitude": 25.06805556},
    "memo": "嚴禁投入家用垃圾，違者重罰新台幣6000元"
  },
  {
    "region": "大同區",
    "road": "重慶北路",
    "address": "3段民族西路公車站",
    "location": {  
 "__type": "GeoPoint",  
 "longitude": 121.5136111,
    "latitude": 25.06833333},
    "memo": "嚴禁投入家用垃圾，違者重罰新台幣6000元"
  },
  {
    "region": "大同區",
    "road": "重慶北路",
    "address": "3段145號",
    "location": {  
 "__type": "GeoPoint",  
 "longitude": 121.5136111,
    "latitude": 25.06833333},
    "memo": "嚴禁投入家用垃圾，違者重罰新台幣6000元"
  },
  {
    "region": "大同區",
    "road": "重慶北路",
    "address": "3段179號",
    "location": {  
 "__type": "GeoPoint",  
 "longitude": 121.5133333,
    "latitude": 25.06916667},
    "memo": "嚴禁投入家用垃圾，違者重罰新台幣6000元"
  },
  {
    "region": "大同區",
    "road": "重慶北路",
    "address": "3段203號",
    "location": {  
 "__type": "GeoPoint",  
 "longitude": 121.5138889,
    "latitude": 25.07},
    "memo": "嚴禁投入家用垃圾，違者重罰新台幣6000元"
  },
  {
    "region": "大同區",
    "road": "重慶北路",
    "address": "3段酒泉街公車站",
    "location": {  
 "__type": "GeoPoint",  
 "longitude": 121.5136111,
    "latitude": 25.07194444},
    "memo": "嚴禁投入家用垃圾，違者重罰新台幣6000元"
  },
  {
    "region": "大同區",
    "road": "重慶北路",
    "address": "3段酒泉街公車站",
    "location": {  
 "__type": "GeoPoint",  
 "longitude": 121.5138889,
    "latitude": 25.07194444},
    "memo": "嚴禁投入家用垃圾，違者重罰新台幣6000元"
  },
  {
    "region": "大同區",
    "road": "重慶北路",
    "address": "3段333號",
    "location": {  
 "__type": "GeoPoint",  
 "longitude": 121.5138889,
    "latitude": 25.07472222},
    "memo": "嚴禁投入家用垃圾，違者重罰新台幣6000元"
  },
  {
    "region": "大同區",
    "road": "重慶北路",
    "address": "3段347號啟聰學校站牌",
    "location": {  
 "__type": "GeoPoint",  
 "longitude": 121.5138889,
    "latitude": 25.075},
    "memo": "嚴禁投入家用垃圾，違者重罰新台幣6000元"
  },
  {
    "region": "大同區",
    "road": "延平北路",
    "address": "4段235巷口對面左邊",
    "location": {  
 "__type": "GeoPoint",  
 "longitude": 121.5119444,
    "latitude": 25.07611111},
    "memo": "嚴禁投入家用垃圾，違者重罰新台幣6000元"
  },
  {
    "region": "大同區",
    "road": "延平北路",
    "address": "4段229號對面",
    "location": {  
 "__type": "GeoPoint",  
 "longitude": 121.5116667,
    "latitude": 25.07527778},
    "memo": "嚴禁投入家用垃圾，違者重罰新台幣6000元"
  },
  {
    "region": "大同區",
    "road": "延平北路",
    "address": "4段(啟聰學校後門)左",
    "location": {  
 "__type": "GeoPoint",  
 "longitude": 121.5116667,
    "latitude": 25.07472222},
    "memo": "嚴禁投入家用垃圾，違者重罰新台幣6000元"
  },
  {
    "region": "大同區",
    "road": "延平北路",
    "address": "4段193號對面",
    "location": {  
 "__type": "GeoPoint",  
 "longitude": 121.5111111,
    "latitude": 25.07416667},
    "memo": "嚴禁投入家用垃圾，違者重罰新台幣6000元"
  },
  {
    "region": "大同區",
    "road": "延平北路",
    "address": "4段155號對面",
    "location": {  
 "__type": "GeoPoint",  
 "longitude": 121.5111111,
    "latitude": 25.07305556},
    "memo": "嚴禁投入家用垃圾，違者重罰新台幣6000元"
  },
  {
    "region": "大同區",
    "road": "酒泉街",
    "address": "235號左邊",
    "location": {  
 "__type": "GeoPoint",  
 "longitude": 121.5105556,
    "latitude": 25.07222222},
    "memo": "嚴禁投入家用垃圾，違者重罰新台幣6000元"
  },
  {
    "region": "大同區",
    "road": "酒泉街",
    "address": "235號右邊",
    "location": {  
 "__type": "GeoPoint",  
 "longitude": 121.5102778,
    "latitude": 25.07222222},
    "memo": "嚴禁投入家用垃圾，違者重罰新台幣6000元"
  },
  {
    "region": "大同區",
    "road": "酒泉街",
    "address": "226號對面",
    "location": {  
 "__type": "GeoPoint",  
 "longitude": 121.51,
    "latitude": 25.07222222},
    "memo": "嚴禁投入家用垃圾，違者重罰新台幣6000元"
  },
  {
    "region": "大同區",
    "road": "環河北路",
    "address": "2段(污水廠天橋下)",
    "location": {  
 "__type": "GeoPoint",  
 "longitude": 121.5088889,
    "latitude": 25.07444444},
    "memo": "嚴禁投入家用垃圾，違者重罰新台幣6000元"
  },
  {
    "region": "大同區",
    "road": "環河北路",
    "address": "2段敦煌路口",
    "location": {  
 "__type": "GeoPoint",  
 "longitude": 121.5097222,
    "latitude": 25.07611111},
    "memo": "嚴禁投入家用垃圾，違者重罰新台幣6000元"
  },
  {
    "region": "大同區",
    "road": "敦煌路",
    "address": "165號對面",
    "location": {  
 "__type": "GeoPoint",  
 "longitude": 121.5108333,
    "latitude": 25.07638889},
    "memo": "嚴禁投入家用垃圾，違者重罰新台幣6000元"
  },
  {
    "region": "大同區",
    "road": "重慶北路",
    "address": "3段338號",
    "location": {  
 "__type": "GeoPoint",  
 "longitude": 121.5136111,
    "latitude": 25.07611111},
    "memo": "嚴禁投入家用垃圾，違者重罰新台幣6000元"
  },
  {
    "region": "大同區",
    "road": "重慶北路",
    "address": "3段320號左側",
    "location": {  
 "__type": "GeoPoint",  
 "longitude": 121.5136111,
    "latitude": 25.075},
    "memo": "嚴禁投入家用垃圾，違者重罰新台幣6000元"
  },
  {
    "region": "大同區",
    "road": "重慶北路",
    "address": "3段320號右側",
    "location": {  
 "__type": "GeoPoint",  
 "longitude": 121.5136111,
    "latitude": 25.07444444},
    "memo": "嚴禁投入家用垃圾，違者重罰新台幣6000元"
  },
  {
    "region": "大同區",
    "road": "重慶北路",
    "address": "3段298號",
    "location": {  
 "__type": "GeoPoint",  
 "longitude": 121.5136111,
    "latitude": 25.07361111},
    "memo": "嚴禁投入家用垃圾，違者重罰新台幣6000元"
  },
  {
    "region": "大同區",
    "road": "重慶北路",
    "address": "3段288號",
    "location": {  
 "__type": "GeoPoint",  
 "longitude": 121.5136111,
    "latitude": 25.07361111},
    "memo": "嚴禁投入家用垃圾，違者重罰新台幣6000元"
  },
  {
    "region": "大同區",
    "road": "重慶北路",
    "address": "3段276號",
    "location": {  
 "__type": "GeoPoint",  
 "longitude": 121.5136111,
    "latitude": 25.07222222},
    "memo": "嚴禁投入家用垃圾，違者重罰新台幣6000元"
  },
  {
    "region": "大同區",
    "road": "酒泉街",
    "address": "157號公車站牌",
    "location": {  
 "__type": "GeoPoint",  
 "longitude": 121.5133333,
    "latitude": 25.07222222},
    "memo": "嚴禁投入家用垃圾，違者重罰新台幣6000元"
  },
  {
    "region": "大同區",
    "road": "酒泉街",
    "address": "157號(正門口)",
    "location": {  
 "__type": "GeoPoint",  
 "longitude": 121.5133333,
    "latitude": 25.07222222},
    "memo": "嚴禁投入家用垃圾，違者重罰新台幣6000元"
  },
  {
    "region": "大同區",
    "road": "酒泉街",
    "address": "221號公車站牌",
    "location": {  
 "__type": "GeoPoint",  
 "longitude": 121.5113889,
    "latitude": 25.07222222},
    "memo": "嚴禁投入家用垃圾，違者重罰新台幣6000元"
  },
  {
    "region": "大同區",
    "road": "重慶北路",
    "address": "3段272號",
    "location": {  
 "__type": "GeoPoint",  
 "longitude": 121.5138889,
    "latitude": 25.07222222},
    "memo": "嚴禁投入家用垃圾，違者重罰新台幣6000元"
  },
  {
    "region": "大同區",
    "road": "重慶北路",
    "address": "3段250-1號",
    "location": {  
 "__type": "GeoPoint",  
 "longitude": 121.5136111,
    "latitude": 25.07083333},
    "memo": "嚴禁投入家用垃圾，違者重罰新台幣6000元"
  },
  {
    "region": "大同區",
    "road": "重慶北路",
    "address": "3段232號",
    "location": {  
 "__type": "GeoPoint",  
 "longitude": 121.5136111,
    "latitude": 25.07027778},
    "memo": "嚴禁投入家用垃圾，違者重罰新台幣6000元"
  },
  {
    "region": "大同區",
    "road": "重慶北路",
    "address": "3段208號",
    "location": {  
 "__type": "GeoPoint",  
 "longitude": 121.5136111,
    "latitude": 25.07055556},
    "memo": "嚴禁投入家用垃圾，違者重罰新台幣6000元"
  },
  {
    "region": "大同區",
    "road": "重慶北路",
    "address": "3段186號",
    "location": {  
 "__type": "GeoPoint",  
 "longitude": 121.5138889,
    "latitude": 25.07055556},
    "memo": "嚴禁投入家用垃圾，違者重罰新台幣6000元"
  },
  {
    "region": "大同區",
    "road": "重慶北路",
    "address": "3段178號公車站牌",
    "location": {  
 "__type": "GeoPoint",  
 "longitude": 121.5136111,
    "latitude": 25.06888889},
    "memo": "嚴禁投入家用垃圾，違者重罰新台幣6000元"
  },
  {
    "region": "大同區",
    "road": "重慶北路",
    "address": "3段172號",
    "location": {  
 "__type": "GeoPoint",  
 "longitude": 121.5138889,
    "latitude": 25.06888889},
    "memo": "嚴禁投入家用垃圾，違者重罰新台幣6000元"
  },
  {
    "region": "大同區",
    "road": "重慶北路",
    "address": "三段168號對面公車站",
    "location": {  
 "__type": "GeoPoint",  
 "longitude": 121.5136111,
    "latitude": 25.06888889},
    "memo": "嚴禁投入家用垃圾，違者重罰新台幣6000元"
  },
  {
    "region": "大同區",
    "road": "民族西路",
    "address": "217號",
    "location": {  
 "__type": "GeoPoint",  
 "longitude": 121.5133333,
    "latitude": 25.06861111},
    "memo": "嚴禁投入家用垃圾，違者重罰新台幣6000元"
  },
  {
    "region": "大同區",
    "road": "民族西路",
    "address": "223之8號",
    "location": {  
 "__type": "GeoPoint",  
 "longitude": 121.5125,
    "latitude": 25.06861111},
    "memo": "嚴禁投入家用垃圾，違者重罰新台幣6000元"
  },
  {
    "region": "大同區",
    "road": "民族西路",
    "address": "223-17號",
    "location": {  
 "__type": "GeoPoint",  
 "longitude": 121.5122222,
    "latitude": 25.06861111},
    "memo": "嚴禁投入家用垃圾，違者重罰新台幣6000元"
  },
  {
    "region": "大同區",
    "road": "民族西路",
    "address": "233號",
    "location": {  
 "__type": "GeoPoint",  
 "longitude": 121.5119444,
    "latitude": 25.06861111},
    "memo": "嚴禁投入家用垃圾，違者重罰新台幣6000元"
  },
  {
    "region": "大同區",
    "road": "民族西路",
    "address": "246號",
    "location": {  
 "__type": "GeoPoint",  
 "longitude": 121.5125,
    "latitude": 25.06861111},
    "memo": "嚴禁投入家用垃圾，違者重罰新台幣6000元"
  },
  {
    "region": "大同區",
    "road": "民族西路",
    "address": "236號",
    "location": {  
 "__type": "GeoPoint",  
 "longitude": 121.5127778,
    "latitude": 25.06861111},
    "memo": "嚴禁投入家用垃圾，違者重罰新台幣6000元"
  },
  {
    "region": "大同區",
    "road": "民族西路",
    "address": "226號公車站牌",
    "location": {  
 "__type": "GeoPoint",  
 "longitude": 121.5130556,
    "latitude": 25.06861111},
    "memo": "嚴禁投入家用垃圾，違者重罰新台幣6000元"
  },
  {
    "region": "大同區",
    "road": "民族西路",
    "address": "重慶北路三段口",
    "location": {  
 "__type": "GeoPoint",  
 "longitude": 121.5136111,
    "latitude": 25.06833333},
    "memo": "嚴禁投入家用垃圾，違者重罰新台幣6000元"
  },
  {
    "region": "大同區",
    "road": "重慶北路",
    "address": "3段164號",
    "location": {  
 "__type": "GeoPoint",  
 "longitude": 121.5136111,
    "latitude": 25.06833333},
    "memo": "嚴禁投入家用垃圾，違者重罰新台幣6000元"
  },
  {
    "region": "大同區",
    "road": "重慶北路",
    "address": "3段138號",
    "location": {  
 "__type": "GeoPoint",  
 "longitude": 121.5136111,
    "latitude": 25.06777778},
    "memo": "嚴禁投入家用垃圾，違者重罰新台幣6000元"
  },
  {
    "region": "大同區",
    "road": "重慶北路",
    "address": "3段124號",
    "location": {  
 "__type": "GeoPoint",  
 "longitude": 121.5136111,
    "latitude": 25.0675},
    "memo": "嚴禁投入家用垃圾，違者重罰新台幣6000元"
  },
  {
    "region": "大同區",
    "road": "重慶北路",
    "address": "三段84號對面公車站",
    "location": {  
 "__type": "GeoPoint",  
 "longitude": 121.5133333,
    "latitude": 25.06638889},
    "memo": "嚴禁投入家用垃圾，違者重罰新台幣6000元"
  },
  {
    "region": "大同區",
    "road": "重慶北路",
    "address": "三段80號對面公車站",
    "location": {  
 "__type": "GeoPoint",  
 "longitude": 121.5133333,
    "latitude": 25.06638889},
    "memo": "嚴禁投入家用垃圾，違者重罰新台幣6000元"
  },
  {
    "region": "大同區",
    "road": "重慶北路",
    "address": "3段54號",
    "location": {  
 "__type": "GeoPoint",  
 "longitude": 121.5136111,
    "latitude": 25.06555556},
    "memo": "嚴禁投入家用垃圾，違者重罰新台幣6000元"
  },
  {
    "region": "大同區",
    "road": "重慶北路",
    "address": "3段44號",
    "location": {  
 "__type": "GeoPoint",  
 "longitude": 121.5136111,
    "latitude": 25.06555556},
    "memo": "嚴禁投入家用垃圾，違者重罰新台幣6000元"
  },
  {
    "region": "大同區",
    "road": "重慶北路",
    "address": "3段20號",
    "location": {  
 "__type": "GeoPoint",  
 "longitude": 121.5136111,
    "latitude": 25.06472222},
    "memo": "嚴禁投入家用垃圾，違者重罰新台幣6000元"
  },
  {
    "region": "大同區",
    "road": "重慶北路",
    "address": "3段2號",
    "location": {  
 "__type": "GeoPoint",  
 "longitude": 121.5136111,
    "latitude": 25.06444444},
    "memo": "嚴禁投入家用垃圾，違者重罰新台幣6000元"
  },
  {
    "region": "大同區",
    "road": "重慶北路",
    "address": "三段2號(大橋頭捷運三號出口)",
    "location": {  
 "__type": "GeoPoint",  
 "longitude": 121.5138889,
    "latitude": 25.06388889},
    "memo": "嚴禁投入家用垃圾，違者重罰新台幣6000元"
  },
  {
    "region": "大同區",
    "road": "重慶北路",
    "address": "3段重慶.民權路口公車專用道",
    "location": {  
 "__type": "GeoPoint",  
 "longitude": 121.5136111,
    "latitude": 25.06333333},
    "memo": "嚴禁投入家用垃圾，違者重罰新台幣6000元"
  },
  {
    "region": "大同區",
    "road": "民權西路",
    "address": "大橋頭捷運二號出口",
    "location": {  
 "__type": "GeoPoint",  
 "longitude": 121.5122222,
    "latitude": 25.06305556},
    "memo": "嚴禁投入家用垃圾，違者重罰新台幣6000元"
  },
  {
    "region": "大同區",
    "road": "民權西路",
    "address": "大橋頭捷運一號出口",
    "location": {  
 "__type": "GeoPoint",  
 "longitude": 121.5122222,
    "latitude": 25.06333333},
    "memo": "嚴禁投入家用垃圾，違者重罰新台幣6000元"
  },
  {
    "region": "大同區",
    "road": "民權西路",
    "address": "237號電箱旁",
    "location": {  
 "__type": "GeoPoint",  
 "longitude": 121.5113889,
    "latitude": 25.06305556},
    "memo": "嚴禁投入家用垃圾，違者重罰新台幣6000元"
  },
  {
    "region": "大同區",
    "road": "延平北路",
    "address": "3段3號",
    "location": {  
 "__type": "GeoPoint",  
 "longitude": 121.5113889,
    "latitude": 25.06333333},
    "memo": "嚴禁投入家用垃圾，違者重罰新台幣6000元"
  },
  {
    "region": "大同區",
    "road": "延平北路",
    "address": "3段4號(地下道出口)",
    "location": {  
 "__type": "GeoPoint",  
 "longitude": 121.5111111,
    "latitude": 25.06333333},
    "memo": "嚴禁投入家用垃圾，違者重罰新台幣6000元"
  },
  {
    "region": "大同區",
    "road": "民族西路",
    "address": "310號",
    "location": {  
 "__type": "GeoPoint",  
 "longitude": 121.5111111,
    "latitude": 25.06833333},
    "memo": "嚴禁投入家用垃圾，違者重罰新台幣6000元"
  },
  {
    "region": "大同區",
    "road": "民族西路",
    "address": "269號旁",
    "location": {  
 "__type": "GeoPoint",  
 "longitude": 121.5108333,
    "latitude": 25.06888889},
    "memo": "嚴禁投入家用垃圾，違者重罰新台幣6000元"
  },
  {
    "region": "大同區",
    "road": "重慶北路",
    "address": "2段涼州街口站牌",
    "location": {  
 "__type": "GeoPoint",  
 "longitude": 121.5133333,
    "latitude": 25.06166667},
    "memo": "嚴禁投入家用垃圾，違者重罰新台幣6000元"
  },
  {
    "region": "大同區",
    "road": "重慶北路",
    "address": "2段涼州街口站牌",
    "location": {  
 "__type": "GeoPoint",  
 "longitude": 121.5133333,
    "latitude": 25.06138889},
    "memo": "嚴禁投入家用垃圾，違者重罰新台幣6000元"
  },
  {
    "region": "大同區",
    "road": "重慶北路",
    "address": "2段涼州街口站牌",
    "location": {  
 "__type": "GeoPoint",  
 "longitude": 121.5136111,
    "latitude": 25.06111111},
    "memo": "嚴禁投入家用垃圾，違者重罰新台幣6000元"
  },
  {
    "region": "大同區",
    "road": "重慶北路",
    "address": "二段涼州街口(公車專用道)",
    "location": {  
 "__type": "GeoPoint",  
 "longitude": 121.5136111,
    "latitude": 25.06083333},
    "memo": "嚴禁投入家用垃圾，違者重罰新台幣6000元"
  },
  {
    "region": "大同區",
    "road": "重慶北路",
    "address": "2段涼州街口公車專用道",
    "location": {  
 "__type": "GeoPoint",  
 "longitude": 121.5136111,
    "latitude": 25.06111111},
    "memo": "嚴禁投入家用垃圾，違者重罰新台幣6000元"
  },
  {
    "region": "大同區",
    "road": "重慶北路",
    "address": "2段涼州街口西南側",
    "location": {  
 "__type": "GeoPoint",  
 "longitude": 121.5133333,
    "latitude": 25.06027778},
    "memo": "嚴禁投入家用垃圾，違者重罰新台幣6000元"
  },
  {
    "region": "大同區",
    "road": "重慶北路",
    "address": "2段148號",
    "location": {  
 "__type": "GeoPoint",  
 "longitude": 121.5136111,
    "latitude": 25.05861111},
    "memo": "嚴禁投入家用垃圾，違者重罰新台幣6000元"
  },
  {
    "region": "大同區",
    "road": "重慶北路",
    "address": "2段140號",
    "location": {  
 "__type": "GeoPoint",  
 "longitude": 121.5138889,
    "latitude": 25.05833333},
    "memo": "嚴禁投入家用垃圾，違者重罰新台幣6000元"
  },
  {
    "region": "大同區",
    "road": "重慶北路",
    "address": "二段民生西路口(公車專用道)",
    "location": {  
 "__type": "GeoPoint",  
 "longitude": 121.5138889,
    "latitude": 25.05694444},
    "memo": "嚴禁投入家用垃圾，違者重罰新台幣6000元"
  },
  {
    "region": "大同區",
    "road": "重慶北路",
    "address": "2段民生西路口公車專用道",
    "location": {  
 "__type": "GeoPoint",  
 "longitude": 121.5136111,
    "latitude": 25.05722222},
    "memo": "嚴禁投入家用垃圾，違者重罰新台幣6000元"
  },
  {
    "region": "大同區",
    "road": "重慶北路",
    "address": "2段64巷口",
    "location": {  
 "__type": "GeoPoint",  
 "longitude": 121.5136111,
    "latitude": 25.05583333},
    "memo": "嚴禁投入家用垃圾，違者重罰新台幣6000元"
  },
  {
    "region": "大同區",
    "road": "重慶北路",
    "address": "2段32號",
    "location": {  
 "__type": "GeoPoint",  
 "longitude": 121.5141667,
    "latitude": 25.05527778},
    "memo": "嚴禁投入家用垃圾，違者重罰新台幣6000元"
  },
  {
    "region": "大同區",
    "road": "重慶北路",
    "address": "1段116號",
    "location": {  
 "__type": "GeoPoint",  
 "longitude": 121.5144444,
    "latitude": 25.05361111},
    "memo": "嚴禁投入家用垃圾，違者重罰新台幣6000元"
  },
  {
    "region": "大同區",
    "road": "重慶北路",
    "address": "1段92號",
    "location": {  
 "__type": "GeoPoint",  
 "longitude": 121.5141667,
    "latitude": 25.05277778},
    "memo": "嚴禁投入家用垃圾，違者重罰新台幣6000元"
  },
  {
    "region": "大同區",
    "road": "重慶北路",
    "address": "1段62號",
    "location": {  
 "__type": "GeoPoint",  
 "longitude": 121.5141667,
    "latitude": 25.05222222},
    "memo": "嚴禁投入家用垃圾，違者重罰新台幣6000元"
  },
  {
    "region": "大同區",
    "road": "重慶北路",
    "address": "1段26號",
    "location": {  
 "__type": "GeoPoint",  
 "longitude": 121.5138889,
    "latitude": 25.05055556},
    "memo": "嚴禁投入家用垃圾，違者重罰新台幣6000元"
  },
  {
    "region": "大同區",
    "road": "重慶北路",
    "address": "1段24號",
    "location": {  
 "__type": "GeoPoint",  
 "longitude": 121.5138889,
    "latitude": 25.05055556},
    "memo": "嚴禁投入家用垃圾，違者重罰新台幣6000元"
  },
  {
    "region": "大同區",
    "road": "重慶北路",
    "address": "1段鄭州路口",
    "location": {  
 "__type": "GeoPoint",  
 "longitude": 121.5136111,
    "latitude": 25.04972222},
    "memo": "嚴禁投入家用垃圾，違者重罰新台幣6000元"
  },
  {
    "region": "大同區",
    "road": "延平北路",
    "address": "1段53號",
    "location": {  
 "__type": "GeoPoint",  
 "longitude": 121.5119444,
    "latitude": 25.05111111},
    "memo": "嚴禁投入家用垃圾，違者重罰新台幣6000元"
  },
  {
    "region": "大同區",
    "road": "延平北路",
    "address": "二段17號",
    "location": {  
 "__type": "GeoPoint",  
 "longitude": 121.5116667,
    "latitude": 25.05472222},
    "memo": "嚴禁投入家用垃圾，違者重罰新台幣6000元"
  },
  {
    "region": "大同區",
    "road": "延平北路",
    "address": "2段217號",
    "location": {  
 "__type": "GeoPoint",  
 "longitude": 121.5111111,
    "latitude": 25.05972222},
    "memo": "嚴禁投入家用垃圾，違者重罰新台幣6000元"
  },
  {
    "region": "大同區",
    "road": "延平北路",
    "address": "二段255號前(大樹下)",
    "location": {  
 "__type": "GeoPoint",  
 "longitude": 121.5113889,
    "latitude": 25.0625},
    "memo": "嚴禁投入家用垃圾，違者重罰新台幣6000元"
  },
  {
    "region": "大同區",
    "road": "延平北路",
    "address": "2段286號",
    "location": {  
 "__type": "GeoPoint",  
 "longitude": 121.5111111,
    "latitude": 25.06277778},
    "memo": "嚴禁投入家用垃圾，違者重罰新台幣6000元"
  },
  {
    "region": "大同區",
    "road": "延平北路",
    "address": "一段80號",
    "location": {  
 "__type": "GeoPoint",  
 "longitude": 121.5119444,
    "latitude": 25.05194444},
    "memo": "嚴禁投入家用垃圾，違者重罰新台幣6000元"
  },
  {
    "region": "大同區",
    "road": "延平北路",
    "address": "一段26號",
    "location": {  
 "__type": "GeoPoint",  
 "longitude": 121.5119444,
    "latitude": 25.05194444},
    "memo": "嚴禁投入家用垃圾，違者重罰新台幣6000元"
  },
  {
    "region": "大同區",
    "road": "塔城街",
    "address": "市民大道口捷運北門站2號出口",
    "location": {  
 "__type": "GeoPoint",  
 "longitude": 121.5102778,
    "latitude": 25.04944444},
    "memo": "嚴禁投入家用垃圾，違者重罰新台幣6000元"
  },
  {
    "region": "大同區",
    "road": "塔城街",
    "address": "塔城公園",
    "location": {  
 "__type": "GeoPoint",  
 "longitude": 121.5108333,
    "latitude": 25.05083333},
    "memo": "嚴禁投入家用垃圾，違者重罰新台幣6000元"
  },
  {
    "region": "大同區",
    "road": "塔城街",
    "address": "36號對面公車站牌",
    "location": {  
 "__type": "GeoPoint",  
 "longitude": 121.5105556,
    "latitude": 25.05166667},
    "memo": "嚴禁投入家用垃圾，違者重罰新台幣6000元"
  },
  {
    "region": "大同區",
    "road": "塔城街",
    "address": "24號前(電信局)",
    "location": {  
 "__type": "GeoPoint",  
 "longitude": 121.5111111,
    "latitude": 25.05083333},
    "memo": "嚴禁投入家用垃圾，違者重罰新台幣6000元"
  },
  {
    "region": "大同區",
    "road": "塔城街",
    "address": "市民大道口捷運北門站1號出口",
    "location": {  
 "__type": "GeoPoint",  
 "longitude": 121.51,
    "latitude": 25.04888889},
    "memo": "嚴禁投入家用垃圾，違者重罰新台幣6000元"
  },
  {
    "region": "大同區",
    "road": "塔城街",
    "address": "市民大道口捷運北門站3號出口",
    "location": {  
 "__type": "GeoPoint",  
 "longitude": 121.5102778,
    "latitude": 25.05},
    "memo": "嚴禁投入家用垃圾，違者重罰新台幣6000元"
  },
  {
    "region": "大同區",
    "road": "鄭州路",
    "address": "26巷口旁",
    "location": {  
 "__type": "GeoPoint",  
 "longitude": 121.5088889,
    "latitude": 25.05027778},
    "memo": "嚴禁投入家用垃圾，違者重罰新台幣6000元"
  },
  {
    "region": "大同區",
    "road": "鄭州路",
    "address": "145號中興醫院東側",
    "location": {  
 "__type": "GeoPoint",  
 "longitude": 121.5094444,
    "latitude": 25.05055556},
    "memo": "嚴禁投入家用垃圾，違者重罰新台幣6000元"
  },
  {
    "region": "大同區",
    "road": "鄭州路",
    "address": "145號中興醫院西側",
    "location": {  
 "__type": "GeoPoint",  
 "longitude": 121.5086111,
    "latitude": 25.05055556},
    "memo": "嚴禁投入家用垃圾，違者重罰新台幣6000元"
  },
  {
    "region": "大同區",
    "road": "西寧北路",
    "address": "中興醫院站牌",
    "location": {  
 "__type": "GeoPoint",  
 "longitude": 121.5086111,
    "latitude": 25.05138889},
    "memo": "嚴禁投入家用垃圾，違者重罰新台幣6000元"
  },
  {
    "region": "大同區",
    "road": "西寧北路",
    "address": "中興醫院急診室車道右側",
    "location": {  
 "__type": "GeoPoint",  
 "longitude": 121.5086111,
    "latitude": 25.05138889},
    "memo": "嚴禁投入家用垃圾，違者重罰新台幣6000元"
  },
  {
    "region": "大同區",
    "road": "西寧北路",
    "address": "32號(忠孝國中)",
    "location": {  
 "__type": "GeoPoint",  
 "longitude": 121.5086111,
    "latitude": 25.05138889},
    "memo": "嚴禁投入家用垃圾，違者重罰新台幣6000元"
  },
  {
    "region": "大同區",
    "road": "西寧北路",
    "address": "32號(忠孝國中南側)",
    "location": {  
 "__type": "GeoPoint",  
 "longitude": 121.5083333,
    "latitude": 25.05111111},
    "memo": "嚴禁投入家用垃圾，違者重罰新台幣6000元"
  },
  {
    "region": "大同區",
    "road": "南京西路",
    "address": "350號",
    "location": {  
 "__type": "GeoPoint",  
 "longitude": 121.5113889,
    "latitude": 25.05388889},
    "memo": "嚴禁投入家用垃圾，違者重罰新台幣6000元"
  },
  {
    "region": "大同區",
    "road": "南京西路",
    "address": "301號西寧北路口",
    "location": {  
 "__type": "GeoPoint",  
 "longitude": 121.5086111,
    "latitude": 25.05361111},
    "memo": "嚴禁投入家用垃圾，違者重罰新台幣6000元"
  },
  {
    "region": "大同區",
    "road": "長安西路",
    "address": "298號",
    "location": {  
 "__type": "GeoPoint",  
 "longitude": 121.5125,
    "latitude": 25.05194444},
    "memo": "嚴禁投入家用垃圾，違者重罰新台幣6000元"
  },
  {
    "region": "大同區",
    "road": "長安西路",
    "address": "303號對面大樹下",
    "location": {  
 "__type": "GeoPoint",  
 "longitude": 121.5077778,
    "latitude": 25.05194444},
    "memo": "嚴禁投入家用垃圾，違者重罰新台幣6000元"
  },
  {
    "region": "大同區",
    "road": "民權西路",
    "address": "146號(98型)",
    "location": {  
 "__type": "GeoPoint",  
 "longitude": 121.5161111,
    "latitude": 25.06305556},
    "memo": "嚴禁投入家用垃圾，違者重罰新台幣6000元"
  },
  {
    "region": "大同區",
    "road": "民權西路",
    "address": "136號",
    "location": {  
 "__type": "GeoPoint",  
 "longitude": 121.5161111,
    "latitude": 25.06277778},
    "memo": "嚴禁投入家用垃圾，違者重罰新台幣6000元"
  },
  {
    "region": "大同區",
    "road": "民權西路",
    "address": "102巷公車專用道內",
    "location": {  
 "__type": "GeoPoint",  
 "longitude": 121.5180556,
    "latitude": 25.0625},
    "memo": "嚴禁投入家用垃圾，違者重罰新台幣6000元"
  },
  {
    "region": "大同區",
    "road": "承德路",
    "address": "民權西路口承德路二段206號(98型)",
    "location": {  
 "__type": "GeoPoint",  
 "longitude": 121.5180556,
    "latitude": 25.06194444},
    "memo": "嚴禁投入家用垃圾，違者重罰新台幣6000元"
  },
  {
    "region": "大同區",
    "road": "承德路",
    "address": "2段168號(98型)",
    "location": {  
 "__type": "GeoPoint",  
 "longitude": 121.5180556,
    "latitude": 25.06111111},
    "memo": "嚴禁投入家用垃圾，違者重罰新台幣6000元"
  },